CodMunicipioIbge,codUFibge,SigUF,NomMunicipio,lon,lat,pop
1100015,11,RO,Alta Floresta d'Oeste,-61.9998238963,-11.9355403048,22516
1100023,11,RO,Ariquemes,-63.033269278,-9.9084628666,111148
1100031,11,RO,Cabixi,-60.5443135812,-13.4997634597,5067
1100049,11,RO,Cacoal,-61.4429442118,-11.4338650287,86416
1100056,11,RO,Cerejeiras,-60.8184261647,-13.195033032,16088
1100064,11,RO,Colorado do Oeste,-60.5550674631,-13.1305638415,15213
1100072,11,RO,Corumbiara,-60.9487011707,-12.9975202365,7052
1100080,11,RO,Costa Marques,-64.2316539391,-12.4360138777,19255
1100098,11,RO,Espigão d'Oeste,-61.0201731133,-11.5285546333,33009
1100106,11,RO,Guajará-Mirim,-65.3239518197,-10.7738837407,46930
1100114,11,RO,Jaru,-62.4762307081,-10.4359487679,51469
1100122,11,RO,Ji-Paraná,-61.9450945827,-10.8820513183,131026
1100130,11,RO,Machadinho d'Oeste,-61.9995925724,-9.42556248,41724
1100148,11,RO,Nova Brasilândia d'Oeste,-62.308230163,-11.7213254139,20504
1100155,11,RO,Ouro Preto do Oeste,-62.2610551904,-10.7235739008,35445
1100189,11,RO,Pimenta Bueno,-61.1836656736,-11.67753699,37098
1100205,11,RO,Porto Velho,-63.8314456544,-8.76889179,548952
1100254,11,RO,Presidente Médici,-61.9094386835,-11.1732050162,18165
1100262,11,RO,Rio Crespo,-62.900010366,-9.7055367097,3843
1100288,11,RO,Rolim de Moura,-61.7857809352,-11.7222589134,55748
1100296,11,RO,Santa Luzia d'Oeste,-61.7733054631,-11.9084233325,5942
1100304,11,RO,Vilhena,-60.1385838661,-12.7413734718,104517
1100320,11,RO,São Miguel do Guaporé,-62.7200634814,-11.6994897438,23147
1100338,11,RO,Nova Mamoré,-65.3291490231,-10.4117712947,32184
1100346,11,RO,Alvorada d'Oeste,-62.2772748657,-11.3441300234,13807
1100379,11,RO,Alto Alegre dos Parecis,-61.8530771686,-12.1317772246,13268
1100403,11,RO,Alto Paraíso,-63.3176294335,-9.7166667381,22258
1100452,11,RO,Buritis,-63.8296787918,-10.2098054072,41043
1100502,11,RO,Novo Horizonte do Oeste,-61.9943876628,-11.70974292,8125
1100601,11,RO,Cacaulândia,-62.9031899346,-10.3388728394,6307
1100700,11,RO,Campo Novo de Rondônia,-63.6249914265,-10.5684164693,14391
1100809,11,RO,Candeias do Jamari,-63.7000200718,-8.7850207035,28068
1100908,11,RO,Castanheiras,-61.9491611965,-11.4268422255,2923
1100924,11,RO,Chupinguaia,-60.90184775,-12.5568407611,11755
1100940,11,RO,Cujubim,-62.5871745319,-9.3781933991,27131
1101005,11,RO,Governador Jorge Teixeira,-62.7404576395,-10.6120717726,7130
1101104,11,RO,Itapuã do Oeste,-63.1823370165,-9.1918716753,10819
1101203,11,RO,Ministro Andreazza,-61.5189219301,-11.1962379842,9461
1101302,11,RO,Mirante da Serra,-62.6694270953,-11.0456092899,10691
1101401,11,RO,Monte Negro,-63.2955591672,-10.2630977559,16158
1101435,11,RO,Nova União,-62.5550893989,-10.9155320417,6822
1101450,11,RO,Parecis,-61.5979979727,-12.1798270507,6319
1101468,11,RO,Pimenteiras do Oeste,-61.0443790025,-13.4765620025,2127
1101476,11,RO,Primavera de Rondônia,-61.3165462429,-11.8257069542,2697
1101484,11,RO,São Felipe d'Oeste,-61.5125081133,-11.9143893547,4962
1101492,11,RO,São Francisco do Guaporé,-63.5708647108,-12.0637984122,21088
1101500,11,RO,Seringueiras,-63.0387609977,-11.7671166356,11846
1101559,11,RO,Teixeirópolis,-62.255922254,-10.932169286,4160
1101609,11,RO,Theobroma,-62.3451455299,-10.248730552,10348
1101708,11,RO,Urupá,-62.3706324538,-11.1285452757,11081
1101757,11,RO,Vale do Anari,-62.1768234421,-9.8513927081,11545
1101807,11,RO,Vale do Paraíso,-62.1343903568,-10.4310526846,6490
1200013,12,AC,Acrelândia,-67.05231658,-10.0737938925,15721
1200054,12,AC,Assis Brasil,-69.5634591747,-10.9428656809,7649
1200104,12,AC,Brasiléia,-68.747943426,-11.0164110191,27123
1200138,12,AC,Bujari,-67.9518592792,-9.8200196267,10572
1200179,12,AC,Capixaba,-67.6735079719,-10.5697677088,12280
1200203,12,AC,Cruzeiro do Sul,-72.6725313174,-7.630690005,89760
1200252,12,AC,Epitaciolândia,-68.7448680667,-11.028239828,18979
1200302,12,AC,Feijó,-70.3539836082,-8.16024753,34986
1200328,12,AC,Jordão,-71.9508751248,-9.1933578598,8628
1200336,12,AC,Mâncio Lima,-72.9165010261,-7.5932225939,19643
1200344,12,AC,Manoel Urbano,-69.2599445775,-8.8363177369,9701
1200351,12,AC,Marechal Thaumaturgo,-72.7902659087,-8.9535911232,19727
1200385,12,AC,Plácido de Castro,-67.1882600862,-10.3351332827,20147
1200393,12,AC,Porto Walter,-72.7423339648,-8.2666663628,12497
1200401,12,AC,Rio Branco,-67.8105287004,-9.9782987527,419452
1200427,12,AC,Rodrigues Alves,-72.6478549142,-7.7336020337,19767
1200435,12,AC,Santa Rosa do Purus,-70.4864968938,-9.4434065374,6893
1200450,12,AC,Senador Guiomard,-67.74317236,-10.1481735862,23446
1200500,12,AC,Sena Madureira,-68.6556840617,-9.065339505,47168
1200609,12,AC,Tarauacá,-70.7555010629,-8.1556685918,43730
1200708,12,AC,Xapuri,-68.506294805,-10.6520719403,19866
1200807,12,AC,Porto Acre,-67.5405900835,-9.6008582312,19141
1300029,13,AM,Alvarães,-64.8135346776,-3.2165837691,16396
1300060,13,AM,Amaturá,-68.2096146409,-3.3668051875,11934
1300086,13,AM,Anamã,-61.4059034798,-3.5763704269,14292
1300102,13,AM,Anori,-61.6589553829,-3.7453855861,21937
1300144,13,AM,Apuí,-59.8856661047,-7.1978701516,22739
1300201,13,AM,Atalaia do Norte,-70.1879892845,-4.3661574897,20868
1300300,13,AM,Autazes,-59.1335670918,-3.5786636418,41005
1300409,13,AM,Barcelos,-62.9256696581,-0.9728010525,27772
1300508,13,AM,Barreirinha,-57.0677504899,-2.7981498369,32919
1300607,13,AM,Benjamin Constant,-70.0273484333,-4.3749890186,44873
1300631,13,AM,Beruri,-61.3715708917,-3.8945134098,20503
1300680,13,AM,Boa Vista do Ramos,-57.5877073465,-2.9717265316,20040
1300706,13,AM,Boca do Acre,-67.3995777567,-8.7512431961,34958
1300805,13,AM,Borba,-59.5945590195,-4.3906198915,42328
1300839,13,AM,Caapiranga,-61.2113341332,-3.3300933919,13482
1300904,13,AM,Canutama,-64.3942308189,-6.5291060758,15981
1301001,13,AM,Carauari,-66.8966352817,-4.8816659042,28719
1301100,13,AM,Careiro,-60.3638098437,-3.82244727,38820
1301159,13,AM,Careiro da Várzea,-59.8263140608,-3.1973965949,31459
1301209,13,AM,Coari,-63.1421839841,-4.0842191588,86713
1301308,13,AM,Codajás,-62.0634296605,-3.8430459327,29691
1301407,13,AM,Eirunepé,-69.8662902624,-6.6673525669,36121
1301506,13,AM,Envira,-70.030412543,-7.439817544,20748
1301605,13,AM,Fonte Boa,-66.0965029898,-2.5122706845,16409
1301654,13,AM,Guajará,-72.5824305383,-7.5477744148,17193
1301704,13,AM,Humaitá,-63.0266980219,-7.5122249506,57195
1301803,13,AM,Ipixuna,-71.6944180603,-7.0509801144,31172
1301852,13,AM,Iranduba,-60.1933881661,-3.2810538776,49718
1301902,13,AM,Itacoatiara,-58.4401754368,-3.1403788039,104046
1301951,13,AM,Itamarati,-68.247917436,-6.4377993486,7777
1302009,13,AM,Itapiranga,-58.034545884,-2.7418427523,9312
1302108,13,AM,Japurá,-66.9969034946,-1.8808448587,1755
1302207,13,AM,Juruá,-66.0630419255,-3.4748895989,15495
1302306,13,AM,Jutaí,-66.7713275467,-2.7446464469,13462
1302405,13,AM,Lábrea,-64.7947730275,-7.2619465533,47685
1302504,13,AM,Manacapuru,-60.6205894459,-3.2982780355,99613
1302553,13,AM,Manaquiri,-60.4588813064,-3.4290796694,33981
1302603,13,AM,Manaus,-60.0233351811,-3.1346914912,2255903
1302702,13,AM,Manicoré,-61.2992484089,-5.8132052612,57405
1302801,13,AM,Maraã,-65.5742837032,-1.8664368773,18298
1302900,13,AM,Maués,-57.7150343868,-3.3864279262,66159
1303007,13,AM,Nhamundá,-56.7167699133,-2.1889837669,21710
1303106,13,AM,Nova Olinda do Norte,-59.093074026,-3.8875928319,38665
1303205,13,AM,Novo Airão,-60.9488107078,-2.623432459,20395
1303304,13,AM,Novo Aripuanã,-60.377045669,-5.1226693142,26443
1303403,13,AM,Parintins,-56.7362921452,-2.6270525858,116439
1303502,13,AM,Pauini,-67.0020974885,-7.7140436443,19616
1303536,13,AM,Presidente Figueiredo,-60.0256468345,-2.0584290852,38095
1303569,13,AM,Rio Preto da Eva,-59.7047380942,-2.6933015416,34856
1303601,13,AM,Santa Isabel do Rio Negro,-65.0200226395,-0.4166948319,26566
1303700,13,AM,Santo Antônio do Içá,-67.9464851439,-3.1074863092,20889
1303809,13,AM,São Gabriel da Cachoeira,-67.0836428963,-0.1364627881,47031
1303908,13,AM,São Paulo de Olivença,-68.9448534881,-3.4665096235,40837
1303957,13,AM,São Sebastião do Uatumã,-57.8703463558,-2.5701525797,14678
1304005,13,AM,Silves,-58.2148008608,-2.8364274297,9289
1304062,13,AM,Tabatinga,-69.9462443752,-4.2318836756,68502
1304104,13,AM,Tapauá,-63.1870948672,-5.6242235178,16876
1304203,13,AM,Tefé,-64.7084196633,-3.3483724939,59250
1304237,13,AM,Tonantins,-67.7764822807,-2.8610912498,19038
1304260,13,AM,Uarini,-65.1553456402,-2.9836092427,13839
1304302,13,AM,Urucará,-57.7598281746,-2.5366116718,16007
1304401,13,AM,Urucurituba,-58.1596410413,-3.1346331156,24098
1400027,14,RR,Amajari,-61.4205901727,3.6521184454,13561
1400050,14,RR,Alto Alegre,-61.3140223901,2.9938229477,15249
1400100,14,RR,Boa Vista,-60.670532673,2.8166819191,436591
1400159,14,RR,Bonfim,-59.8780066289,3.3502886191,12701
1400175,14,RR,Cantá,-60.6020628476,2.6076663984,19257
1400209,14,RR,Caracaraí,-61.1491768701,1.8038712473,22635
1400233,14,RR,Caroebe,-59.6948100737,0.8726745072,10595
1400282,14,RR,Iracema,-61.052258585,2.1682147652,12637
1400308,14,RR,Mucajaí,-60.9115185306,2.4797722351,18482
1400407,14,RR,Normandia,-59.6352062836,3.8829782853,11772
1400456,14,RR,Pacaraima,-61.1473063471,4.4752593402,20108
1400472,14,RR,Rorainópolis,-60.425060494,0.9371953936,31387
1400506,14,RR,São João da Baliza,-59.9060443452,0.9471574275,8492
1400605,14,RR,São Luiz,-60.0282667742,1.0181116274,8232
1400704,14,RR,Uiramutã,-60.195716148,4.5854403875,11014
1500107,15,PA,Abaetetuba,-48.8844038207,-1.7234698628,160439
1500131,15,PA,Abel Figueiredo,-48.3967621258,-4.9513908955,7536
1500206,15,PA,Acará,-48.2004564318,-1.9634365,55744
1500305,15,PA,Afuá,-50.3914275892,-0.1591716938,39910
1500347,15,PA,Água Azul do Norte,-50.4852745073,-6.8049488674,27797
1500404,15,PA,Alenquer,-54.7408623502,-1.951397505,57390
1500503,15,PA,Almeirim,-52.5768350868,-1.5273388028,34044
1500602,15,PA,Altamira,-52.2143763052,-3.20565951,117320
1500701,15,PA,Anajás,-49.9450010405,-0.984451394,30091
1500800,15,PA,Ananindeua,-48.3720666542,-1.3687135683,540410
1500859,15,PA,Anapu,-51.2016217985,-3.4761046351,29312
1500909,15,PA,Augusto Corrêa,-46.6416457857,-1.02292101,46937
1500958,15,PA,Aurora do Pará,-47.5561746036,-2.1293760132,32200
1501006,15,PA,Aveiro,-55.3307343898,-3.6055952593,16421
1501105,15,PA,Bagre,-50.2219869206,-1.8898080604,31967
1501204,15,PA,Baião,-49.6727533733,-2.7919618614,49454
1501253,15,PA,Bannach,-50.4060471215,-7.3510721924,3239
1501303,15,PA,Barcarena,-48.6270728925,-1.505767005,129333
1501402,15,PA,Belém,-48.4878256875,-1.459845,1506420
1501451,15,PA,Belterra,-54.9426747393,-2.6490201695,17944
1501501,15,PA,Benevides,-48.2418364506,-1.361437515,64780
1501576,15,PA,Bom Jesus do Tocantins,-48.5990399591,-5.0473627043,17254
1501600,15,PA,Bonito,-47.3058918169,-1.3674743569,16769
1501709,15,PA,Bragança,-46.7657542137,-1.0535239562,130122
1501725,15,PA,Brasil Novo,-52.5434411923,-3.297803704,14883
1501758,15,PA,Brejo Grande do Araguaia,-48.4057604224,-5.7072961538,7357
1501782,15,PA,Breu Branco,-49.5698796833,-3.7781354129,68597
1501808,15,PA,Breves,-50.480894799,-1.6907365,104280
1501907,15,PA,Bujaru,-48.0358750144,-1.5139914623,29717
1501956,15,PA,Cachoeira do Piriá,-46.5473914166,-1.7528970049,35307
1502004,15,PA,Cachoeira do Arari,-48.9606675774,-1.0087862656,24355
1502103,15,PA,Cametá,-49.497830169,-2.24683848,140814
1502152,15,PA,Canaã dos Carajás,-49.8489584319,-6.5321966156,39103
1502202,15,PA,Capanema,-47.1751261231,-1.192441995,69828
1502301,15,PA,Capitão Poço,-47.0628253774,-1.7461872932,54545
1502400,15,PA,Castanhal,-47.9266431419,-1.295756805,205667
1502509,15,PA,Chaves,-49.9893186051,-0.1624372901,24175
1502608,15,PA,Colares,-48.2887284319,-0.932091244,12175
1502707,15,PA,Conceição do Araguaia,-49.2645008125,-8.26486353,48115
1502756,15,PA,Concórdia do Pará,-47.949886939,-1.9845214628,34236
1502764,15,PA,Cumaru do Norte,-50.7715783775,-7.8111065369,14044
1502772,15,PA,Curionópolis,-49.602214225,-6.0968199522,17764
1502806,15,PA,Curralinho,-49.7915228471,-1.8094234197,35530
1502855,15,PA,Curuá,-55.1196786087,-1.8899287043,14776
1502905,15,PA,Curuçá,-47.8512650859,-0.73249551,41093
1502939,15,PA,Dom Eliseu,-47.555914886,-4.29077772,61206
1502954,15,PA,Eldorado do Carajás,-49.3739519422,-6.1035251611,34069
1503002,15,PA,Faro,-56.7457530173,-2.1729752419,6949
1503044,15,PA,Floresta do Araguaia,-49.6975784122,-7.5587008724,20742
1503077,15,PA,Garrafão do Norte,-47.0450460173,-1.9316970431,26155
1503093,15,PA,Goianésia do Pará,-49.1010449237,-3.842468,41678
1503101,15,PA,Gurupá,-51.6436957234,-1.404918,34127
1503200,15,PA,Igarapé-Açu,-47.622375492,-1.124322,39234
1503309,15,PA,Igarapé-Miri,-48.9622994689,-1.983116,63367
1503408,15,PA,Inhangapi,-47.9133927466,-1.4265819809,12009
1503457,15,PA,Ipixuna do Pará,-47.4997175888,-2.5575285,67170
1503507,15,PA,Irituia,-47.4407556128,-1.771474995,32639
1503606,15,PA,Itaituba,-55.9900488573,-4.26372948,101541
1503705,15,PA,Itupiranga,-49.3244258613,-5.1288370264,53439
1503754,15,PA,Jacareacanga,-57.7663398584,-6.2235517314,6952
1503804,15,PA,Jacundá,-49.1127815626,-4.448405475,60517
1503903,15,PA,Juruti,-56.0949976884,-2.155252995,59961
1504000,15,PA,Limoeiro do Ajuru,-49.3815339012,-1.8919485,29623
1504059,15,PA,Mãe do Rio,-47.5522901795,-2.0477074408,30389
1504109,15,PA,Magalhães Barata,-47.5991818965,-0.795850156,8598
1504208,15,PA,Marabá,-49.1420253334,-5.3526057631,287664
1504307,15,PA,Maracanã,-47.4552679594,-0.76241946,29559
1504406,15,PA,Marapanim,-47.7025487538,-0.7121509963,28563
1504422,15,PA,Marituba,-48.3405358778,-1.3464172656,135812
1504455,15,PA,Medicilândia,-52.8883453507,-3.4454174122,32347
1504505,15,PA,Melgaço,-50.7174646977,-1.8034466986,28121
1504604,15,PA,Mocajuba,-49.5090234613,-2.5828729733,31917
1504703,15,PA,Moju,-48.7671991274,-1.885889,84251
1504752,15,PA,Mojuí dos Campos,-54.64326888,-2.68245777,16282
1504802,15,PA,Monte Alegre,-54.0733747256,-2.003328,58289
1504901,15,PA,Muaná,-49.2168324425,-1.5300262084,41454
1504950,15,PA,Nova Esperança do Piriá,-46.9620928837,-2.267625989,21519
1504976,15,PA,Nova Ipixuna,-49.079886938,-4.923086307,17027
1505007,15,PA,Nova Timboteua,-47.3932022765,-1.2041436475,15646
1505031,15,PA,Novo Progresso,-55.419870118,-7.0348359133,25769
1505064,15,PA,Novo Repartimento,-49.9486382443,-4.2481485,78488
1505106,15,PA,Óbidos,-55.5163235097,-1.9092354959,52473
1505205,15,PA,Oeiras do Pará,-49.8551061088,-2.004734,33182
1505304,15,PA,Oriximiná,-55.8627995152,-1.7637535,74921
1505403,15,PA,Ourém,-47.1176193629,-1.5489471423,18079
1505437,15,PA,Ourilândia do Norte,-51.0908327747,-6.7406170864,33831
1505486,15,PA,Pacajá,-50.6348408304,-3.8303057038,49110
1505494,15,PA,Palestina do Pará,-48.3217937262,-5.7499341062,7575
1505502,15,PA,Paragominas,-47.3569615611,-2.9941905,115838
1505536,15,PA,Parauapebas,-49.9007806343,-6.0727298876,218787
1505551,15,PA,Pau d'Arco,-50.0482755319,-7.836794404,5339
1505601,15,PA,Peixe-Boi,-47.3179270216,-1.1895692408,8084
1505635,15,PA,Piçarra,-48.8684006672,-6.4536762346,12976
1505650,15,PA,Placas,-54.2169681313,-3.8673155621,32325
1505700,15,PA,Ponta de Pedras,-48.87178556,-1.3965999975,32007
1505809,15,PA,Portel,-50.8224904422,-1.936451,63831
1505908,15,PA,Porto de Moz,-52.242476919,-1.7460900888,42456
1506005,15,PA,Prainha,-53.4818139408,-1.8056945,29827
1506104,15,PA,Primavera,-47.1172512589,-0.9401115159,10889
1506112,15,PA,Quatipuru,-47.0067869936,-0.9001158537,13794
1506138,15,PA,Redenção,-50.0296418255,-8.0276045,86326
1506161,15,PA,Rio Maria,-50.0464108775,-7.3111152447,18208
1506187,15,PA,Rondon do Pará,-48.0699737494,-4.777821727,53242
1506195,15,PA,Rurópolis,-54.9058622599,-4.09906539,52473
1506203,15,PA,Salinópolis,-47.3531202632,-0.623638,41164
1506302,15,PA,Salvaterra,-48.5131865994,-0.7545259744,24392
1506351,15,PA,Santa Bárbara do Pará,-48.2977406498,-1.229439467,21811
1506401,15,PA,Santa Cruz do Arari,-49.1716155661,-0.6599741256,10496
1506500,15,PA,Santa Izabel do Pará,-48.163059941,-1.2973959013,72856
1506559,15,PA,Santa Luzia do Pará,-46.9061692027,-1.5188278914,19839
1506583,15,PA,Santa Maria das Barreiras,-49.7193518572,-8.8705505397,22244
1506609,15,PA,Santa Maria do Pará,-47.5746954138,-1.3478664593,25127
1506708,15,PA,Santana do Araguaia,-50.3448043211,-9.329424525,75995
1506807,15,PA,Santarém,-54.7185701673,-2.43621333,308339
1506906,15,PA,Santarém Novo,-47.4009247449,-0.9287195358,6796
1507003,15,PA,Santo Antônio do Tauá,-48.1324330748,-1.1516925,32346
1507102,15,PA,São Caetano de Odivelas,-48.0258054981,-0.74661776,18207
1507151,15,PA,São Domingos do Araguaia,-48.7203734108,-5.549841,25945
1507201,15,PA,São Domingos do Capim,-47.7747845692,-1.6758145,32285
1507300,15,PA,São Félix do Xingu,-51.993782524,-6.6424832783,135732
1507409,15,PA,São Francisco do Pará,-47.7905146107,-1.1701887847,15978
1507458,15,PA,São Geraldo do Araguaia,-48.5557124862,-6.39895797,24566
1507466,15,PA,São João da Ponta,-47.9207241656,-0.8510021453,6294
1507474,15,PA,São João de Pirabas,-47.1726742979,-0.7664425315,23440
1507508,15,PA,São João do Araguaia,-48.788633402,-5.3590027244,14105
1507607,15,PA,São Miguel do Guamá,-47.4824089445,-1.6171359145,60268
1507706,15,PA,São Sebastião da Boa Vista,-49.5323121746,-1.7188505,27302
1507755,15,PA,Sapucaia,-49.7035807119,-6.9428571126,6088
1507805,15,PA,Senador José Porfírio,-51.953056418,-2.5948504183,11305
1507904,15,PA,Soure,-48.5160126623,-0.7259255,25752
1507953,15,PA,Tailândia,-48.9512816296,-2.9370795,111554
1507961,15,PA,Terra Alta,-47.9078083484,-1.0348266636,11971
1507979,15,PA,Terra Santa,-56.4909047722,-2.1081144737,19063
1508001,15,PA,Tomé-Açu,-48.1468965866,-2.4193668553,64604
1508035,15,PA,Tracuateua,-46.8994783371,-1.0687840586,31549
1508050,15,PA,Trairão,-55.9961700349,-4.6998191497,19344
1508084,15,PA,Tucumã,-51.1395392466,-6.7499720074,40661
1508100,15,PA,Tucuruí,-49.6671843672,-3.7668890843,116605
1508126,15,PA,Ulianópolis,-47.503144755,-3.75719301,62286
1508159,15,PA,Uruará,-53.7370310505,-3.7065285,45395
1508209,15,PA,Vigia,-48.1414985852,-0.8555325737,54650
1508308,15,PA,Viseu,-46.1387652161,-1.2032785267,62093
1508357,15,PA,Vitória do Xingu,-52.0112603538,-2.8837657102,15421
1508407,15,PA,Xinguara,-49.9427005844,-7.1015128271,45416
1600055,16,AP,Serra do Navio,-52.0035384353,0.897841041,5577
1600105,16,AP,Amapá,-50.7932144703,2.0539212447,9265
1600154,16,AP,Pedra Branca do Amapari,-51.9465942733,0.7768828606,17625
1600204,16,AP,Calçoene,-50.9447727343,2.4965590446,11493
1600212,16,AP,Cutias,-50.8016260299,0.9710780554,6217
1600238,16,AP,Ferreira Gomes,-51.187429046,0.8539773931,8151
1600253,16,AP,Itaubal,-50.7001794374,0.6006532883,5730
1600279,16,AP,Laranjal do Jari,-52.5390207369,-0.8556645,52302
1600303,16,AP,Macapá,-51.057405457,0.03895101,522357
1600402,16,AP,Mazagão,-51.2860768561,-0.1243963288,22468
1600501,16,AP,Oiapoque,-51.8305525553,3.8511307326,28534
1600535,16,AP,Porto Grande,-51.414448823,0.7125547018,22927
1600550,16,AP,Pracuúba,-50.7842537213,1.7425084871,5370
1600600,16,AP,Santana,-51.1728464651,-0.0383734791,124808
1600709,16,AP,Tartarugalzinho,-50.9127861523,1.5098482403,18217
1600808,16,AP,Vitória do Jari,-52.4196147796,-0.9189770885,16572
1700251,17,TO,Abreulândia,-49.1624375555,-9.621790712,2609
1700301,17,TO,Aguiarnópolis,-47.4704565879,-6.5471708206,7049
1700350,17,TO,Aliança do Tocantins,-48.9412400221,-11.3037430465,5303
1700400,17,TO,Almas,-47.1741716842,-11.5745234694,6905
1700707,17,TO,Alvorada,-49.1268114067,-12.4788153208,8381
1701002,17,TO,Ananás,-48.0797646062,-6.3628181541,9435
1701051,17,TO,Angico,-47.8620778392,-6.3877527497,3475
1701101,17,TO,Aparecida do Rio Negro,-47.9766700114,-9.9558777146,4901
1701309,17,TO,Aragominas,-48.5234301923,-7.1643492714,5705
1701903,17,TO,Araguacema,-49.5618126396,-8.8018025441,7223
1702000,17,TO,Araguaçu,-49.8286124433,-12.9255837119,8418
1702109,17,TO,Araguaína,-48.2087052519,-7.1913289397,186245
1702158,17,TO,Araguanã,-48.6437495469,-6.58224942,5856
1702208,17,TO,Araguatins,-48.123507343,-5.650586473,36573
1702307,17,TO,Arapoema,-49.0756373853,-7.6525697354,6590
1702406,17,TO,Arraias,-46.9461070586,-12.9344198593,10502
1702554,17,TO,Augustinópolis,-47.880956791,-5.4654142959,18870
1702703,17,TO,Aurora do Tocantins,-46.4070829809,-12.7084898611,3809
1702901,17,TO,Axixá do Tocantins,-47.7741560325,-5.6243090659,9817
1703008,17,TO,Babaçulândia,-47.758816127,-7.2018645321,10668
1703057,17,TO,Bandeirantes do Tocantins,-48.5783806049,-7.7648591413,3631
1703073,17,TO,Barra do Ouro,-47.6871349692,-7.6917665987,4673
1703107,17,TO,Barrolândia,-48.7314605907,-9.8316533645,5669
1703206,17,TO,Bernardo Sayão,-48.8990543467,-7.8685124833,4439
1703305,17,TO,Bom Jesus do Tocantins,-48.1663804935,-8.9633480129,5120
1703602,17,TO,Brasilândia do Tocantins,-48.4853744191,-8.3848893511,2221
1703701,17,TO,Brejinho de Nazaré,-48.5586602282,-11.0108050562,5540
1703800,17,TO,Buriti do Tocantins,-48.2232501281,-5.3135388564,11644
1703826,17,TO,Cachoeirinha,-47.9141977786,-6.1132416465,2293
1703842,17,TO,Campos Lindos,-46.8019743467,-7.9716813941,10505
1703867,17,TO,Cariri do Tocantins,-49.171040729,-11.8889974639,4499
1703883,17,TO,Carmolândia,-48.3959599306,-7.0314787779,2627
1703891,17,TO,Carrasco Bonito,-48.0306334266,-5.3226613549,4165
1703909,17,TO,Caseara,-49.9486922678,-9.2674062189,5514
1704105,17,TO,Centenário,-47.3383985146,-8.9584636391,2966
1704600,17,TO,Chapada de Areia,-49.183107858,-10.1419885833,1415
1705102,17,TO,Chapada da Natividade,-47.7539048919,-11.6242678314,3330
1705508,17,TO,Colinas do Tocantins,-48.4815945437,-8.0546246755,36271
1705557,17,TO,Combinado,-46.5520723403,-12.818607672,4870
1705607,17,TO,Conceição do Tocantins,-47.2928688108,-12.217277767,4070
1706001,17,TO,Couto Magalhães,-49.1765715709,-8.3551183696,5690
1706100,17,TO,Cristalândia,-49.1863002913,-10.5907246371,7268
1706258,17,TO,Crixás do Tocantins,-48.9155138256,-11.1042742936,1749
1706506,17,TO,Darcinópolis,-47.7521611103,-6.7123510015,6250
1707009,17,TO,Dianópolis,-46.8204090669,-11.6252318781,22704
1707108,17,TO,Divinópolis do Tocantins,-49.2054131874,-9.7953011402,6986
1707207,17,TO,Dois Irmãos do Tocantins,-49.0673386443,-9.2612967098,7173
1707306,17,TO,Dueré,-49.2658759162,-11.3412854168,4686
1707405,17,TO,Esperantina,-48.5441476004,-5.3666080594,11280
1707553,17,TO,Fátima,-48.8989826587,-10.7525087281,3824
1707652,17,TO,Figueirópolis,-49.1738467307,-12.1367799832,5222
1707702,17,TO,Filadélfia,-47.4849641415,-7.3376119059,8892
1708205,17,TO,Formoso do Araguaia,-49.5268603629,-11.8051419686,18358
1708254,17,TO,Fortaleza do Tabocão,-48.517426421,-9.0589653011,2615
1708304,17,TO,Goianorte,-48.9368901924,-8.7705208048,5136
1709005,17,TO,Goiatins,-47.3154354892,-7.7091723902,13169
1709302,17,TO,Guaraí,-48.5086406065,-8.8361656575,26403
1709500,17,TO,Gurupi,-49.0714774689,-11.7297723229,88428
1709807,17,TO,Ipueiras,-48.4519262289,-11.2462886216,2088
1710508,17,TO,Itacajá,-47.7681124027,-8.3909805523,7471
1710706,17,TO,Itaguatins,-47.479935949,-5.7753850884,5801
1710904,17,TO,Itapiratins,-48.1111996095,-8.3843295934,3814
1711100,17,TO,Itaporã do Tocantins,-48.6932637032,-8.5688286116,2412
1711506,17,TO,Jaú do Tocantins,-48.5946082927,-12.6529263693,3906
1711803,17,TO,Juarina,-49.0986431854,-8.1174239676,2174
1711902,17,TO,Lagoa da Confusão,-49.6200853391,-10.7886955576,13989
1711951,17,TO,Lagoa do Tocantins,-47.5614466303,-10.296886697,4470
1712009,17,TO,Lajeado,-48.3585039507,-9.7446824357,3199
1712157,17,TO,Lavandeira,-46.5066757157,-12.7916587877,1984
1712405,17,TO,Lizarda,-46.6751654558,-9.5945702878,3727
1712454,17,TO,Luzinópolis,-47.8568280414,-6.1939896602,3200
1712504,17,TO,Marianópolis do Tocantins,-49.6510339944,-9.7988803594,5332
1712702,17,TO,Mateiros,-46.4124657431,-10.5444288461,2773
1712801,17,TO,Maurilândia do Tocantins,-47.5048799602,-5.9525664212,3470
1713205,17,TO,Miracema do Tocantins,-48.3879913115,-9.5683460776,17628
1713304,17,TO,Miranorte,-48.5926319369,-9.5174047311,13551
1713601,17,TO,Monte do Carmo,-48.1104200299,-10.7635421946,8182
1713700,17,TO,Monte Santo do Tocantins,-48.9908906034,-10.0055914318,2311
1713809,17,TO,Palmeiras do Tocantins,-47.5586835263,-6.6118623346,6830
1713957,17,TO,Muricilândia,-48.606745277,-7.1385192852,3623
1714203,17,TO,Natividade,-47.7272575338,-11.7053573825,9256
1714302,17,TO,Nazaré,-47.6669771825,-6.3725579693,3772
1714880,17,TO,Nova Olinda,-48.42480679,-7.6333149107,12014
1715002,17,TO,Nova Rosalândia,-48.9061807245,-10.5668711393,4348
1715101,17,TO,Novo Acordo,-47.6681483922,-9.9684864657,4450
1715150,17,TO,Novo Alegre,-46.5772973537,-12.9099386744,2332
1715259,17,TO,Novo Jardim,-46.6307872959,-11.8158750501,2768
1715507,17,TO,Oliveira de Fátima,-48.9074015689,-10.7083627091,1124
1715705,17,TO,Palmeirante,-47.934249709,-7.8575613761,6234
1715754,17,TO,Palmeirópolis,-48.4134139552,-13.0398884337,7694
1716109,17,TO,Paraíso do Tocantins,-48.886630084,-10.171220755,52521
1716208,17,TO,Paranã,-47.8840837284,-12.6204814887,10426
1716307,17,TO,Pau d'Arco,-49.363306481,-7.5399983557,4885
1716505,17,TO,Pedro Afonso,-48.1775561127,-8.9644495924,13964
1716604,17,TO,Peixe,-48.5378106263,-12.0297738309,11996
1716653,17,TO,Pequizeiro,-48.9351798669,-8.5933406544,5546
1716703,17,TO,Colméia,-48.7570665857,-8.7293718068,8078
1717008,17,TO,Pindorama do Tocantins,-47.5756877173,-11.1382025847,4414
1717206,17,TO,Piraquê,-48.2937073911,-6.7697770334,3038
1717503,17,TO,Pium,-49.1666580116,-10.4409311179,7830
1717800,17,TO,Ponte Alta do Bom Jesus,-46.4695867924,-12.0878129084,4586
1717909,17,TO,Ponte Alta do Tocantins,-47.5411803583,-10.7406728487,8192
1718006,17,TO,Porto Alegre do Tocantins,-47.0474256004,-11.6072590991,3200
1718204,17,TO,Porto Nacional,-48.4121534584,-10.708569917,53618
1718303,17,TO,Praia Norte,-47.8147317333,-5.3967128774,8563
1718402,17,TO,Presidente Kennedy,-48.5043306701,-8.5299608276,3668
1718451,17,TO,Pugmil,-48.8942204488,-10.4243071562,2746
1718501,17,TO,Recursolândia,-47.238041195,-8.7353604539,4389
1718550,17,TO,Riachinho,-48.141045502,-6.4422113877,4723
1718659,17,TO,Rio da Conceição,-46.8803997046,-11.4049400239,2211
1718709,17,TO,Rio dos Bois,-48.5330479716,-9.3437422387,2879
1718758,17,TO,Rio Sono,-47.8999416391,-9.3477893341,6498
1718808,17,TO,Sampaio,-47.8757924572,-5.3492956165,4876
1718840,17,TO,Sandolândia,-49.9333881543,-12.5416001675,3371
1718865,17,TO,Santa Fé do Araguaia,-48.6939418034,-7.149936385,7678
1718881,17,TO,Santa Maria do Tocantins,-47.7452704192,-8.7749764493,3537
1718899,17,TO,Santa Rita do Tocantins,-48.9092940074,-10.8664553694,2407
1718907,17,TO,Santa Rosa do Tocantins,-48.1199542218,-11.4514039985,4864
1719004,17,TO,Santa Tereza do Tocantins,-47.8062883215,-10.2823615278,2928
1720002,17,TO,Santa Terezinha do Tocantins,-47.684285363,-6.4369976184,2530
1720101,17,TO,São Bento do Tocantins,-47.9193922871,-6.0449992572,5457
1720150,17,TO,São Félix do Tocantins,-46.654980831,-10.173285854,1610
1720200,17,TO,São Miguel do Tocantins,-47.5730023394,-5.5538195288,12445
1720259,17,TO,São Salvador do Tocantins,-48.2320849917,-12.7474334145,3106
1720309,17,TO,São Sebastião do Tocantins,-48.203834149,-5.2589614537,4898
1720499,17,TO,São Valério,-48.2329484334,-11.9730674595,3848
1720655,17,TO,Silvanópolis,-48.1798241355,-11.1498613086,5452
1720804,17,TO,Sítio Novo do Tocantins,-47.6374226505,-5.6047268567,8965
1720853,17,TO,Sucupira,-48.9111262827,-11.9862215109,2007
1720903,17,TO,Taguatinga,-46.4387317009,-12.3961417387,16966
1720937,17,TO,Taipas do Tocantins,-46.9845717959,-12.1928372091,2183
1720978,17,TO,Talismã,-49.0911184339,-12.7875384069,2831
1721000,17,TO,Palmas,-48.3510437082,-10.1632533268,313349
1721109,17,TO,Tocantínia,-48.3758796714,-9.558147734,7688
1721208,17,TO,Tocantinópolis,-47.4274129287,-6.325634376,22820
1721257,17,TO,Tupirama,-48.2066848031,-8.9805695494,1952
1721307,17,TO,Tupiratins,-48.1229957409,-8.395529997,2785
1722081,17,TO,Wanderlândia,-47.95626773,-6.850125517,11783
1722107,17,TO,Xambioá,-48.53160107,-6.41188502,11500
2100055,21,MA,Açailândia,-47.5066645931,-4.9513770002,113783
2100105,21,MA,Afonso Cunha,-43.320869004,-4.1350154769,6631
2100154,21,MA,Água Doce do Maranhão,-42.1155512017,-2.8402782791,12731
2100204,21,MA,Alcântara,-44.4170125373,-2.4032765251,22126
2100303,21,MA,Aldeias Altas,-43.4687348529,-4.6307794952,26979
2100402,21,MA,Altamira do Maranhão,-45.4646758312,-4.1622692669,8250
2100436,21,MA,Alto Alegre do Maranhão,-44.4482474945,-4.207227,28066
2100477,21,MA,Alto Alegre do Pindaré,-45.8420796162,-3.6651703745,31967
2100501,21,MA,Alto Parnaíba,-45.9273440133,-9.1083659322,11233
2100550,21,MA,Amapá do Maranhão,-46.0091799004,-1.6809214951,7047
2100600,21,MA,Amarante do Maranhão,-46.7506375455,-5.5576620002,42017
2100709,21,MA,Anajatuba,-44.6206700278,-3.2575548421,27170
2100808,21,MA,Anapurus,-43.1057925097,-3.6670346623,16054
2100832,21,MA,Apicum-Açu,-45.0766520734,-1.5305915778,17582
2100873,21,MA,Araguanã,-45.6687944761,-2.9491256233,15675
2100907,21,MA,Araioses,-41.8991394499,-2.8892558464,47095
2100956,21,MA,Arame,-46.0136362778,-4.886081505,32825
2101004,21,MA,Arari,-44.7788346547,-3.4591709701,30014
2101103,21,MA,Axixá,-44.0545858091,-2.8377968371,12234
2101202,21,MA,Bacabal,-44.7815559641,-4.2315246298,105094
2101251,21,MA,Bacabeira,-44.3154229866,-2.9858247788,17446
2101301,21,MA,Bacuri,-45.1373489396,-1.7240463185,18726
2101350,21,MA,Bacurituba,-44.7357420062,-2.7108719765,5696
2101400,21,MA,Balsas,-46.0389926733,-7.5311699902,96951
2101509,21,MA,Barão de Grajaú,-43.0264526994,-6.7589552056,19026
2101608,21,MA,Barra do Corda,-45.2390110161,-5.5083395,88895
2101707,21,MA,Barreirinhas,-42.8278025132,-2.7500859488,63891
2101731,21,MA,Belágua,-43.5100616427,-3.1567722275,7586
2101772,21,MA,Bela Vista do Maranhão,-45.2482458782,-3.7377332499,11347
2101806,21,MA,Benedito Leite,-44.559856799,-7.2187997954,5643
2101905,21,MA,Bequimão,-44.7857301569,-2.4620629951,21317
2101939,21,MA,Bernardo do Mearim,-44.7643231035,-4.6302874908,6102
2101970,21,MA,Boa Vista do Gurupi,-46.2987100525,-1.7932961358,8494
2102002,21,MA,Bom Jardim,-45.6018893891,-3.5441609779,42010
2102036,21,MA,Bom Jesus das Selvas,-46.8532412231,-4.4899683531,35095
2102077,21,MA,Bom Lugar,-45.0311078563,-4.3755096015,16578
2102101,21,MA,Brejo,-42.7508478268,-3.679178,36900
2102150,21,MA,Brejo de Areia,-45.5820952718,-4.3306298975,8841
2102200,21,MA,Buriti,-42.9251061778,-3.9455715,28916
2102309,21,MA,Buriti Bravo,-43.8356215415,-5.8352881321,23993
2102325,21,MA,Buriticupu,-46.4514953191,-4.3259477263,73595
2102358,21,MA,Buritirana,-47.0172250932,-5.5889151417,15503
2102374,21,MA,Cachoeira Grande,-44.0596850158,-2.9319210391,9524
2102408,21,MA,Cajapió,-44.6733771646,-2.8828822032,11255
2102507,21,MA,Cajari,-45.007965335,-3.3238688309,19521
2102556,21,MA,Campestre do Maranhão,-47.3676328633,-6.1647166458,14530
2102606,21,MA,Cândido Mendes,-45.7372683656,-1.4538891085,20376
2102705,21,MA,Cantanhede,-44.3818161358,-3.6283643119,22236
2102754,21,MA,Capinzal do Norte,-44.330436252,-4.7212453888,10937
2102804,21,MA,Carolina,-47.4700918028,-7.3307830052,24151
2102903,21,MA,Carutapera,-46.0231508346,-1.200602,24095
2103000,21,MA,Caxias,-43.3585394285,-4.8616749902,166159
2103109,21,MA,Cedral,-44.5307895278,-1.9979159256,10711
2103125,21,MA,Central do Maranhão,-44.8318437025,-2.1913139076,8806
2103158,21,MA,Centro do Guilherme,-46.0399601132,-2.4569850818,13876
2103174,21,MA,Centro Novo do Maranhão,-46.128408955,-2.1442916986,22056
2103208,21,MA,Chapadinha,-43.3611207818,-3.74002452,80705
2103257,21,MA,Cidelândia,-47.7842327757,-5.1774210472,14855
2103307,21,MA,Codó,-43.886080235,-4.4513375001,123368
2103406,21,MA,Coelho Neto,-43.0140136155,-4.2547375001,49804
2103505,21,MA,Colinas,-44.2497802305,-6.0273655202,41443
2103554,21,MA,Conceição do Lago-Açu,-44.9030159052,-3.8411184579,16559
2103604,21,MA,Coroatá,-44.1255992015,-4.128976,65788
2103703,21,MA,Cururupu,-44.867761617,-1.8255207812,32559
2103752,21,MA,Davinópolis,-47.4049963875,-5.5344562161,12923
2103802,21,MA,Dom Pedro,-44.440009911,-5.0384476352,23393
2103901,21,MA,Duque Bacelar,-42.9441802036,-4.1478190971,11451
2104008,21,MA,Esperantinópolis,-44.886068699,-4.8703008975,16971
2104057,21,MA,Estreito,-47.4478829861,-6.5680849802,43097
2104073,21,MA,Feira Nova do Maranhão,-46.687355216,-6.9631355406,8506
2104081,21,MA,Fernando Falcão,-44.9107074022,-6.1549784629,10559
2104099,21,MA,Formosa da Serra Negra,-46.1863570069,-6.4353041056,19425
2104107,21,MA,Fortaleza dos Nogueiras,-46.185557542,-6.9659260875,12662
2104206,21,MA,Fortuna,-44.1606284272,-5.7362241325,17812
2104305,21,MA,Godofredo Viana,-45.7717548081,-1.4098001867,12104
2104404,21,MA,Gonçalves Dias,-44.3059065359,-5.1439555695,17953
2104503,21,MA,Governador Archer,-44.2757565261,-5.0253878239,10931
2104552,21,MA,Governador Edison Lobão,-47.368935839,-5.7474117385,18740
2104602,21,MA,Governador Eugênio Barros,-44.246962646,-5.3224910015,14703
2104628,21,MA,Governador Luiz Rocha,-44.0708873355,-5.4728646849,7878
2104651,21,MA,Governador Newton Bello,-45.674501797,-3.4297047199,10121
2104677,21,MA,Governador Nunes Freire,-45.8814811328,-2.13496236,25502
2104701,21,MA,Graça Aranha,-44.3357912599,-5.4048212131,6261
2104800,21,MA,Grajaú,-46.142395636,-5.8185484313,70692
2104909,21,MA,Guimarães,-44.5977464563,-2.1350771584,11966
2105005,21,MA,Humberto de Campos,-43.4650921443,-2.5912239723,29143
2105104,21,MA,Icatu,-44.0658484686,-2.7748278631,27423
2105153,21,MA,Igarapé do Meio,-45.1833277022,-3.6367085219,14470
2105203,21,MA,Igarapé Grande,-44.8674033459,-4.6608538062,11453
2105302,21,MA,Imperatriz,-47.4798108058,-5.5265240252,259980
2105351,21,MA,Itaipava do Grajaú,-45.7926825035,-5.1445822618,16158
2105401,21,MA,Itapecuru Mirim,-44.3542633904,-3.3990454801,69233
2105427,21,MA,Itinga do Maranhão,-47.5279099638,-4.4550039984,26134
2105450,21,MA,Jatobá,-44.2199147698,-5.8196669368,10464
2105476,21,MA,Jenipapo dos Vieiras,-45.6333791074,-5.3694249264,17123
2105500,21,MA,João Lisboa,-47.4050361498,-5.4536629416,23677
2105609,21,MA,Joselândia,-44.6991525645,-4.9726933289,16228
2105658,21,MA,Junco do Maranhão,-46.0707260732,-1.8746095975,4334
2105708,21,MA,Lago da Pedra,-45.1258913559,-4.564744515,50959
2105807,21,MA,Lago do Junco,-45.0513443921,-4.6076432177,10900
2105906,21,MA,Lago Verde,-44.937635232,-4.0387112953,16369
2105922,21,MA,Lagoa do Mato,-43.5275591166,-6.0452772966,11280
2105948,21,MA,Lago dos Rodrigues,-44.9764423256,-4.6123757769,8841
2105963,21,MA,Lagoa Grande do Maranhão,-45.3906142794,-4.9931237371,11534
2105989,21,MA,Lajeado Novo,-47.0324475171,-6.1916092267,7653
2106003,21,MA,Lima Campos,-44.4693403292,-4.5170459872,11943
2106102,21,MA,Loreto,-45.1392416375,-7.0944541654,12271
2106201,21,MA,Luís Domingues,-45.8953319921,-1.3254602444,7016
2106300,21,MA,Magalhães de Almeida,-42.2015066914,-3.3966676742,20228
2106326,21,MA,Maracaçumé,-45.9586390372,-2.0561645495,21773
2106359,21,MA,Marajá do Sena,-45.4572376526,-4.6203133241,7757
2106375,21,MA,Maranhãozinho,-45.8556114549,-2.2356169921,16754
2106409,21,MA,Mata Roma,-43.1203894236,-3.6190455099,17122
2106508,21,MA,Matinha,-45.0364289401,-3.09840003,23591
2106607,21,MA,Matões,-43.2012082829,-5.5224650194,34099
2106631,21,MA,Matões do Norte,-44.5502445069,-3.6275187802,17316
2106672,21,MA,Milagres do Maranhão,-42.6107528325,-3.5822066414,8502
2106706,21,MA,Mirador,-44.3626097939,-6.3775656954,21045
2106755,21,MA,Miranda do Norte,-44.5842756917,-3.5626447744,29121
2106805,21,MA,Mirinzal,-44.7857559865,-2.0642241916,15059
2106904,21,MA,Monção,-45.2475846706,-3.49393248,33888
2107001,21,MA,Montes Altos,-47.070439508,-5.8285625042,9064
2107100,21,MA,Morros,-44.0445445432,-2.8614789531,19708
2107209,21,MA,Nina Rodrigues,-43.9044847603,-3.4624642894,14826
2107258,21,MA,Nova Colinas,-46.2593252229,-7.1205660036,5469
2107308,21,MA,Nova Iorque,-44.0486267271,-6.7332033058,4682
2107357,21,MA,Nova Olinda do Maranhão,-45.7045360408,-2.7998865441,21228
2107407,21,MA,Olho d'Água das Cunhãs,-45.1195796205,-4.1372759298,19616
2107456,21,MA,Olinda Nova do Maranhão,-45.0032353745,-2.9974776154,14968
2107506,21,MA,Paço do Lumiar,-44.0986923548,-2.528063,125265
2107605,21,MA,Palmeirândia,-44.9044638923,-2.6477742783,19840
2107704,21,MA,Paraibano,-43.9857620488,-6.4318254141,21571
2107803,21,MA,Parnarama,-43.0904013535,-5.6844671764,35108
2107902,21,MA,Passagem Franca,-43.7817452259,-6.1739944256,19253
2108009,21,MA,Pastos Bons,-44.0886025134,-6.6040277321,19693
2108058,21,MA,Paulino Neves,-42.5454239809,-2.7182059898,16295
2108108,21,MA,Paulo Ramos,-45.2399800047,-4.4479567659,21092
2108207,21,MA,Pedreiras,-44.6037348763,-4.5693506881,39153
2108256,21,MA,Pedro do Rosário,-45.3464537341,-2.9681146727,25560
2108306,21,MA,Penalva,-45.1764616888,-3.2932333178,38987
2108405,21,MA,Peri Mirim,-44.8502907001,-2.5730546485,14371
2108454,21,MA,Peritoró,-44.3258535239,-4.3702251177,23530
2108504,21,MA,Pindaré-Mirim,-45.3468679178,-3.6055005749,33186
2108603,21,MA,Pinheiro,-45.0839266013,-2.5227405,84160
2108702,21,MA,Pio XII,-45.1699603887,-3.8875875301,21274
2108801,21,MA,Pirapemas,-44.2282808838,-3.7253290661,18814
2108900,21,MA,Poção de Pedras,-44.9515514003,-4.7500252112,17321
2109007,21,MA,Porto Franco,-47.3821649019,-6.3541818639,24294
2109056,21,MA,Porto Rico do Maranhão,-44.5837478896,-1.8572232148,5936
2109106,21,MA,Presidente Dutra,-44.4929188624,-5.2823742578,48264
2109205,21,MA,Presidente Juscelino,-44.0767794214,-2.9282292461,12939
2109239,21,MA,Presidente Médici,-45.8207086476,-2.3836640465,7124
2109270,21,MA,Presidente Sarney,-45.3713022606,-2.5955305599,19217
2109304,21,MA,Presidente Vargas,-44.0334018673,-3.4020115222,11328
2109403,21,MA,Primeira Cruz,-43.4424433047,-2.510583172,15545
2109452,21,MA,Raposa,-44.1025161642,-2.4150749026,31586
2109502,21,MA,Riachão,-46.6233501429,-7.3645650002,20288
2109551,21,MA,Ribamar Fiquene,-47.3834777871,-5.9338228588,7859
2109601,21,MA,Rosário,-44.2475185953,-2.941543035,43243
2109700,21,MA,Sambaíba,-45.344203198,-7.1383508975,5686
2109759,21,MA,Santa Filomena do Maranhão,-44.5637140401,-5.4997668067,7878
2109809,21,MA,Santa Helena,-45.3051611932,-2.2345325089,42829
2109908,21,MA,Santa Inês,-45.3782724523,-3.65857452,89927
2110005,21,MA,Santa Luzia,-45.6650117249,-3.968391465,73105
2110039,21,MA,Santa Luzia do Paruá,-45.7764615616,-2.5461614748,25487
2110104,21,MA,Santa Quitéria do Maranhão,-42.5628730097,-3.4984849951,25884
2110203,21,MA,Santa Rita,-44.3199480819,-3.1341167657,38732
2110237,21,MA,Santana do Maranhão,-42.4007677572,-3.1130683428,13704
2110278,21,MA,Santo Amaro do Maranhão,-43.2552849422,-2.502721199,16219
2110302,21,MA,Santo Antônio dos Lopes,-44.3614474338,-4.8738195756,14516
2110401,21,MA,São Benedito do Rio Preto,-43.5299918702,-3.3327660037,18769
2110500,21,MA,São Bento,-44.8283451799,-2.6970075,45989
2110609,21,MA,São Bernardo,-42.4230096609,-3.3654365101,28825
2110658,21,MA,São Domingos do Azeitão,-44.6504239103,-6.8044250098,7448
2110708,21,MA,São Domingos do Maranhão,-44.3928792569,-5.5656420002,34391
2110807,21,MA,São Félix de Balsas,-44.8114476615,-7.0846851542,4540
2110856,21,MA,São Francisco do Brejão,-47.3911373986,-5.1302007872,12082
2110906,21,MA,São Francisco do Maranhão,-42.8653217276,-6.2527979167,12226
2111003,21,MA,São João Batista,-44.8117618531,-2.9533329125,20736
2111029,21,MA,São João do Carú,-46.2549254827,-3.5608034069,15768
2111052,21,MA,São João do Paraíso,-47.0506104205,-6.4662222864,11207
2111078,21,MA,São João do Soter,-43.8181817951,-5.1157392644,18746
2111102,21,MA,São João dos Patos,-43.7029101658,-6.4982081521,26063
2111201,21,MA,São José de Ribamar,-44.0575481151,-2.55585852,180345
2111250,21,MA,São José dos Basílios,-44.5824465176,-5.0486872452,7639
2111300,21,MA,São Luís,-44.2979185642,-2.5318859851,1115932
2111409,21,MA,São Luís Gonzaga do Maranhão,-44.6627084964,-4.3739184906,18600
2111508,21,MA,São Mateus do Maranhão,-44.4685628111,-4.0345505101,41750
2111532,21,MA,São Pedro da Água Branca,-48.4236235936,-5.0889109974,12779
2111573,21,MA,São Pedro dos Crentes,-46.5325803474,-6.8285556408,4700
2111607,21,MA,São Raimundo das Mangabeiras,-45.4848314302,-7.0269626572,19090
2111631,21,MA,São Raimundo do Doca Bezerra,-45.0841627903,-5.1031818449,5028
2111672,21,MA,São Roberto,-44.9919011593,-5.0173668824,6856
2111706,21,MA,São Vicente Ferrer,-44.8869045766,-2.8907310644,22452
2111722,21,MA,Satubinha,-45.2336295762,-4.0357354948,14274
2111748,21,MA,Senador Alexandre Costa,-44.0563015064,-5.2610765444,11285
2111763,21,MA,Senador La Rocque,-47.289191424,-5.4418324952,13981
2111789,21,MA,Serrano do Maranhão,-45.1146408497,-1.8526455417,10343
2111805,21,MA,Sítio Novo,-46.6949833407,-5.8706298913,18237
2111904,21,MA,Sucupira do Norte,-44.1886027052,-6.4782844476,10631
2111953,21,MA,Sucupira do Riachão,-43.5458533208,-6.4201084051,5692
2112001,21,MA,Tasso Fragoso,-45.7441235175,-8.4798310179,8642
2112100,21,MA,Timbiras,-43.9384339738,-4.253840505,29241
2112209,21,MA,Timon,-42.8337278989,-5.1006811101,171317
2112233,21,MA,Trizidela do Vale,-44.6106851966,-4.5701268566,22223
2112274,21,MA,Tufilândia,-45.6339164757,-3.6764041184,5868
2112308,21,MA,Tuntum,-44.6490121517,-5.24965554,42242
2112407,21,MA,Turiaçu,-45.3691524172,-1.6690220477,35811
2112456,21,MA,Turilândia,-45.306765312,-2.228833525,26112
2112506,21,MA,Tutóia,-42.2768472077,-2.7635501969,59927
2112605,21,MA,Urbano Santos,-43.4042484724,-3.2084094996,33791
2112704,21,MA,Vargem Grande,-43.9166644902,-3.5418960001,57813
2112803,21,MA,Viana,-45.0013066953,-3.2145625131,52852
2112852,21,MA,Vila Nova dos Martírios,-48.1389264826,-5.1835115192,13800
2112902,21,MA,Vitória do Mearim,-44.8695722406,-3.4820473645,32956
2113009,21,MA,Vitorino Freire,-45.2441851432,-4.2911865001,31520
2114007,21,MA,Zé Doca,-45.6576978606,-3.2754805,52190
2200053,22,PI,Acauã,-41.0836378172,-8.2207866629,7119
2200103,22,PI,Agricolândia,-42.6591831974,-5.7955019354,5123
2200202,22,PI,Água Branca,-42.63513086,-5.8932663379,17525
2200251,22,PI,Alagoinha do Piauí,-40.9346348169,-7.0081752801,7678
2200277,22,PI,Alegrete do Piauí,-40.8578629896,-7.2453494663,4921
2200301,22,PI,Alto Longá,-42.2103219622,-5.2509930114,14371
2200400,22,PI,Altos,-42.4609480356,-5.0365464343,40681
2200459,22,PI,Alvorada do Gurguéia,-43.8630715789,-8.4439590723,5469
2200509,22,PI,Amarante,-42.853692823,-6.2466107722,17609
2200608,22,PI,Angical do Piauí,-42.7438657484,-6.0872416921,6779
2200707,22,PI,Anísio de Abreu,-43.0348533321,-9.1749185309,9994
2200806,22,PI,Antônio Almeida,-44.19653532,-7.219355834,3175
2200905,22,PI,Aroazes,-41.7974533388,-6.1128502563,5819
2200954,22,PI,Aroeiras do Itaim,-41.5632044183,-7.278745465,2551
2201002,22,PI,Arraial,-42.5365666247,-6.6508270275,4713
2201051,22,PI,Assunção do Piauí,-41.0508299965,-5.8649144945,7879
2201101,22,PI,Avelino Lopes,-43.9415101418,-10.1347450128,11361
2201150,22,PI,Baixa Grande do Ribeiro,-45.2128152926,-7.8533519592,11751
2201176,22,PI,Barra d'Alcântara,-42.1050020826,-6.5188730723,3953
2201200,22,PI,Barras,-42.2953398573,-4.2430933543,47298
2201309,22,PI,Barreiras do Piauí,-45.4777877055,-9.9212468267,3356
2201408,22,PI,Barro Duro,-42.5133778221,-5.8123597078,7022
2201507,22,PI,Batalha,-42.075218732,-4.0204123358,26951
2201556,22,PI,Bela Vista do Piauí,-41.871379644,-7.9721853196,4044
2201572,22,PI,Belém do Piauí,-40.9703021907,-7.3701396155,3607
2201606,22,PI,Beneditinos,-42.3706167025,-5.4476028602,10479
2201705,22,PI,Bertolínia,-43.9543877391,-7.6286247631,5512
2201739,22,PI,Betânia do Piauí,-40.7966219288,-8.1456655773,6214
2201770,22,PI,Boa Hora,-42.1252957359,-4.4090096058,6848
2201804,22,PI,Bocaina,-41.3223406827,-6.9548423326,4509
2201903,22,PI,Bom Jesus,-44.3605250848,-9.0709489837,25584
2201919,22,PI,Bom Princípio do Piauí,-41.6452095701,-3.1898586876,5670
2201929,22,PI,Bonfim do Piauí,-42.8796630651,-9.1665605393,5700
2201945,22,PI,Boqueirão do Piauí,-42.1036271347,-4.4858196316,6443
2201960,22,PI,Brasileira,-41.7892596436,-4.1378291077,8364
2201988,22,PI,Brejo do Piauí,-42.8303018098,-8.2070647664,3824
2202000,22,PI,Buriti dos Lopes,-41.8699088471,-3.1727213351,19832
2202026,22,PI,Buriti dos Montes,-41.1018513937,-5.3120667826,8282
2202059,22,PI,Cabeceiras do Piauí,-42.3083160653,-4.4713312938,10671
2202075,22,PI,Cajazeiras do Piauí,-42.3967272946,-6.7941841175,3586
2202083,22,PI,Cajueiro da Praia,-41.3471503622,-2.9292271718,7704
2202091,22,PI,Caldeirão Grande do Piauí,-40.6374189127,-7.3315596518,5786
2202109,22,PI,Campinas do Piauí,-41.880745293,-7.654778128,5628
2202117,22,PI,Campo Alegre do Fidalgo,-41.8320133242,-8.3744803807,5093
2202133,22,PI,Campo Grande do Piauí,-41.0312009604,-7.1359931202,5987
2202174,22,PI,Campo Largo do Piauí,-42.6260410417,-3.8078689392,7342
2202208,22,PI,Campo Maior,-42.1667446047,-4.8291139266,46950
2202251,22,PI,Canavieira,-43.7194280334,-7.6946215595,3938
2202307,22,PI,Canto do Buriti,-42.944021022,-8.1082319197,21326
2202406,22,PI,Capitão de Campos,-41.9435219724,-4.4585592684,11471
2202455,22,PI,Capitão Gervásio Oliveira,-41.8161163124,-8.4968378684,4127
2202505,22,PI,Caracol,-43.3342004508,-9.2767652672,11009
2202539,22,PI,Caraúbas do Piauí,-41.841208126,-3.4785905375,5910
2202554,22,PI,Caridade do Piauí,-40.9903345468,-7.7286523876,5102
2202604,22,PI,Castelo do Piauí,-41.5473162427,-5.3215438709,19716
2202653,22,PI,Caxingó,-41.8826837611,-3.4269384028,5477
2202703,22,PI,Cocal,-41.5568448346,-3.4704534897,27901
2202711,22,PI,Cocal de Telha,-41.979047874,-4.5538157239,4908
2202729,22,PI,Cocal dos Alves,-41.4554189108,-3.6060725908,6180
2202737,22,PI,Coivaras,-42.2073159063,-5.0913083514,4044
2202752,22,PI,Colônia do Gurguéia,-43.7960171561,-8.1875742163,6545
2202778,22,PI,Colônia do Piauí,-42.1771185064,-7.223657564,7665
2202802,22,PI,Conceição do Canindé,-41.5966339439,-7.8827041539,4811
2202851,22,PI,Coronel José Dias,-42.4703571012,-8.8163694115,4688
2202901,22,PI,Corrente,-45.1633125236,-10.4409360381,26771
2203008,22,PI,Cristalândia do Piauí,-45.1860307001,-10.6478037518,8350
2203107,22,PI,Cristino Castro,-44.2244147473,-8.8201862885,10464
2203206,22,PI,Curimatá,-44.3007222329,-10.0312924303,11461
2203230,22,PI,Currais,-44.403002153,-9.0124338389,4982
2203255,22,PI,Curralinhos,-42.8322105193,-5.6204532294,4475
2203271,22,PI,Curral Novo do Piauí,-40.9010694707,-7.8307971884,5390
2203305,22,PI,Demerval Lobão,-42.6742286111,-5.3584654659,13862
2203354,22,PI,Dirceu Arcoverde,-42.439569962,-9.3352000441,7046
2203404,22,PI,Dom Expedito Lopes,-41.6523852113,-6.9579018427,6940
2203420,22,PI,Domingos Mourão,-41.2718814489,-4.2534336345,4352
2203453,22,PI,Dom Inocêncio,-41.9768511188,-9.0080749434,9574
2203503,22,PI,Elesbão Veloso,-42.1381444495,-6.2017194613,14550
2203602,22,PI,Eliseu Martins,-43.6648111317,-8.0964622896,4943
2203701,22,PI,Esperantina,-42.2353645251,-3.8956045306,39953
2203750,22,PI,Fartura do Piauí,-42.7944014032,-9.4786062863,5330
2203800,22,PI,Flores do Piauí,-42.924305802,-7.7917756018,4461
2203859,22,PI,Floresta do Piauí,-41.8003142914,-7.4667953749,2561
2203909,22,PI,Floriano,-43.0206447383,-6.7696724338,60111
2204006,22,PI,Francinópolis,-42.263366099,-6.3952926226,5345
2204105,22,PI,Francisco Ayres,-42.6911278448,-6.6233435319,4300
2204154,22,PI,Francisco Macedo,-40.7955673541,-7.3278710406,3216
2204204,22,PI,Francisco Santos,-41.1361573365,-6.9941711375,9423
2204303,22,PI,Fronteiras,-40.6172329307,-7.0884125329,11690
2204352,22,PI,Geminiano,-41.3575797605,-7.1584176259,5477
2204402,22,PI,Gilbués,-45.3469199782,-9.8345699055,10698
2204501,22,PI,Guadalupe,-43.5669236545,-6.7852469087,10496
2204550,22,PI,Guaribas,-43.6877210274,-9.3951113037,4573
2204600,22,PI,Hugo Napoleão,-42.5625630466,-5.9877878907,3880
2204659,22,PI,Ilha Grande,-41.819773184,-2.8540086072,9487
2204709,22,PI,Inhuma,-41.7101940565,-6.6671203407,15330
2204808,22,PI,Ipiranga do Piauí,-41.7399141279,-6.8269326783,9863
2204907,22,PI,Isaías Coelho,-41.6794480825,-7.7343106967,8582
2205003,22,PI,Itainópolis,-41.4800253105,-7.4512808131,11571
2205102,22,PI,Itaueira,-43.0254965078,-7.6081166325,11037
2205151,22,PI,Jacobina do Piauí,-41.2107620507,-7.9362644875,5718
2205201,22,PI,Jaicós,-41.1464748135,-7.3531523272,19233
2205250,22,PI,Jardim do Mulato,-42.6339595632,-6.0965775948,4522
2205276,22,PI,Jatobá do Piauí,-41.8198222186,-4.7731589443,4885
2205300,22,PI,Jerumenha,-43.5027430064,-7.0846321939,4443
2205359,22,PI,João Costa,-42.4178485806,-8.4891257219,3003
2205409,22,PI,Joaquim Pires,-42.1876898036,-3.5131035479,14396
2205458,22,PI,Joca Marques,-42.427737079,-3.4880338256,5488
2205508,22,PI,José de Freitas,-42.5783745315,-4.7630506395,39457
2205516,22,PI,Juazeiro do Piauí,-41.7026007597,-5.1613727543,5491
2205524,22,PI,Júlio Borges,-44.2437006324,-10.3267868137,5653
2205532,22,PI,Jurema,-43.133109743,-9.2220247205,4790
2205540,22,PI,Lagoinha do Piauí,-42.6273837299,-5.8365834406,2870
2205557,22,PI,Lagoa Alegre,-42.616742539,-4.5087297492,8610
2205565,22,PI,Lagoa do Barro do Piauí,-41.5302754057,-8.4824371152,4658
2205573,22,PI,Lagoa de São Francisco,-41.6054686902,-4.3927463867,6795
2205581,22,PI,Lagoa do Piauí,-42.6490132063,-5.4121441696,4086
2205599,22,PI,Lagoa do Sítio,-41.5823863013,-6.5153476298,5219
2205607,22,PI,Landri Sales,-43.9310455151,-7.2665999754,5272
2205706,22,PI,Luís Correia,-41.6645672323,-2.8815665358,30558
2205805,22,PI,Luzilândia,-42.3716375238,-3.4608176352,25521
2205854,22,PI,Madeiro,-42.5051412465,-3.4842120052,8372
2205904,22,PI,Manoel Emídio,-43.8754746717,-8.011358674,5352
2205953,22,PI,Marcolândia,-40.6628542914,-7.4435566614,8590
2206001,22,PI,Marcos Parente,-43.8883140086,-7.1192953775,4546
2206050,22,PI,Massapê do Piauí,-41.1238546846,-7.4654826845,6456
2206100,22,PI,Matias Olímpio,-42.5586289028,-3.7110272834,10979
2206209,22,PI,Miguel Alves,-42.8931666493,-4.1682155823,33901
2206308,22,PI,Miguel Leão,-42.7358295252,-5.6822417804,1239
2206357,22,PI,Milton Brandão,-41.4479595412,-4.6999534776,6603
2206407,22,PI,Monsenhor Gil,-42.6173989159,-5.5514856314,10563
2206506,22,PI,Monsenhor Hipólito,-41.0328934036,-7.0035024726,7785
2206605,22,PI,Monte Alegre do Piauí,-45.2957402209,-9.7558336681,10618
2206654,22,PI,Morro Cabeça no Tempo,-43.9018743654,-9.7193194922,4527
2206670,22,PI,Morro do Chapéu do Piauí,-42.309063395,-3.7422550962,6825
2206696,22,PI,Murici dos Portelas,-42.0967690818,-3.3238597851,9258
2206704,22,PI,Nazaré do Piauí,-42.6682272301,-6.9671284911,7307
2206720,22,PI,Nazária,-42.8140484696,-5.346925,8632
2206753,22,PI,Nossa Senhora de Nazaré,-42.1793030785,-4.6269320917,4911
2206803,22,PI,Nossa Senhora dos Remédios,-42.6239510485,-3.9912253518,8751
2206902,22,PI,Novo Oriente do Piauí,-41.9287223144,-6.4494051369,6548
2206951,22,PI,Novo Santo Antônio,-41.9345074979,-5.286057644,3014
2207009,22,PI,Oeiras,-42.1314056604,-7.016418006,37138
2207108,22,PI,Olho d'Água do Piauí,-42.578551609,-5.8471585734,2477
2207207,22,PI,Padre Marcos,-40.9058620824,-7.3547121155,6879
2207306,22,PI,Paes Landim,-42.2569576294,-7.7755629145,4124
2207355,22,PI,Pajeú do Piauí,-42.8169360898,-7.8525200922,3416
2207405,22,PI,Palmeira do Piauí,-44.2325685792,-8.7295011188,5029
2207504,22,PI,Palmeirais,-43.0618435229,-5.9797968361,14633
2207553,22,PI,Paquetá,-41.7013852456,-7.1014662443,3931
2207603,22,PI,Parnaguá,-44.6343146131,-10.2171809705,10846
2207702,22,PI,Parnaíba,-41.778170592,-2.9033601445,153863
2207751,22,PI,Passagem Franca do Piauí,-42.4405267463,-5.8562473203,4331
2207777,22,PI,Patos do Piauí,-41.2522813963,-7.6807639351,6420
2207793,22,PI,Pau d'Arco do Piauí,-42.3888654971,-5.2510934294,4084
2207801,22,PI,Paulistana,-41.1470964851,-8.1414361349,20583
2207850,22,PI,Pavussu,-43.2217523026,-7.9642869548,3662
2207900,22,PI,Pedro II,-41.4585599331,-4.4270552654,38812
2207934,22,PI,Pedro Laurentino,-42.28607367,-8.0668825944,2551
2207959,22,PI,Nova Santa Rita,-42.0482620011,-8.0749647181,4392
2208007,22,PI,Picos,-41.4688267147,-7.0813739122,78627
2208106,22,PI,Pimenteiras,-41.4151586072,-6.2416884097,12150
2208205,22,PI,Pio IX,-40.6182727863,-6.8326873012,18492
2208304,22,PI,Piracuruca,-41.7090415496,-3.9292874936,28952
2208403,22,PI,Piripiri,-41.7785048524,-4.2760686933,63829
2208502,22,PI,Porto,-42.7109259993,-3.891422995,12646
2208551,22,PI,Porto Alegre do Piauí,-44.1948371019,-6.9717246866,2728
2208601,22,PI,Prata do Piauí,-42.2042236753,-5.6647976938,3149
2208650,22,PI,Queimada Nova,-41.4170249222,-8.5854253469,9041
2208700,22,PI,Redenção do Gurguéia,-44.5812141606,-9.4934482414,8814
2208809,22,PI,Regeneração,-42.6850242313,-6.2401830211,17979
2208858,22,PI,Riacho Frio,-44.9525300483,-10.1287276881,4306
2208874,22,PI,Ribeira do Piauí,-42.7140434913,-7.6905755012,4499
2208908,22,PI,Ribeiro Gonçalves,-45.2456386843,-7.558034245,7408
2209005,22,PI,Rio Grande do Piauí,-43.140182786,-7.7708571198,6434
2209104,22,PI,Santa Cruz do Piauí,-41.7619256891,-7.1776264961,6254
2209153,22,PI,Santa Cruz dos Milagres,-41.9584459531,-5.8081209984,4046
2209203,22,PI,Santa Filomena,-45.9205564411,-9.1067957053,6256
2209302,22,PI,Santa Luz,-44.1295859063,-8.9446242169,5903
2209351,22,PI,Santana do Piauí,-41.518480558,-6.9490717639,4650
2209377,22,PI,Santa Rosa do Piauí,-42.2808138761,-6.8014550583,5254
2209401,22,PI,Santo Antônio de Lisboa,-41.2337647421,-6.981848477,6466
2209450,22,PI,Santo Antônio dos Milagres,-42.711196805,-6.0467175963,2172
2209500,22,PI,Santo Inácio do Piauí,-41.91821286,-7.4223368374,3809
2209559,22,PI,São Braz do Piauí,-42.9990725171,-9.0625605359,4454
2209609,22,PI,São Félix do Piauí,-42.1135025902,-5.932867663,2923
2209658,22,PI,São Francisco de Assis do Piauí,-41.6895971517,-8.2377547497,5801
2209708,22,PI,São Francisco do Piauí,-42.538531987,-7.2439761039,6417
2209757,22,PI,São Gonçalo do Gurguéia,-45.3014055106,-10.0299401062,3071
2209807,22,PI,São Gonçalo do Piauí,-42.6988309841,-5.9896674395,5044
2209856,22,PI,São João da Canabrava,-41.3460536519,-6.8189309895,4619
2209872,22,PI,São João da Fronteira,-41.2562869593,-3.9385974341,6084
2209906,22,PI,São João da Serra,-41.8992637511,-5.5087975378,6106
2209955,22,PI,São João da Varjota,-41.8637422049,-6.9190178385,4856
2209971,22,PI,São João do Arraial,-42.4531261733,-3.8131688736,8085
2210003,22,PI,São João do Piauí,-42.2564375329,-8.348849688,20720
2210052,22,PI,São José do Divino,-41.8301087692,-3.8057163565,5361
2210102,22,PI,São José do Peixe,-42.5701794158,-7.4930087809,3737
2210201,22,PI,São José do Piauí,-41.4794072342,-6.8706262447,6696
2210300,22,PI,São Julião,-40.8369132448,-7.0853150046,6379
2210359,22,PI,São Lourenço do Piauí,-42.5443519904,-9.1720018771,4581
2210375,22,PI,São Luis do Piauí,-41.3228378192,-6.8281438298,2648
2210383,22,PI,São Miguel da Baixa Grande,-42.1853773738,-5.8622986343,2456
2210391,22,PI,São Miguel do Fidalgo,-42.3705290412,-7.5849691189,3037
2210409,22,PI,São Miguel do Tapuio,-41.3197984895,-5.5006636991,17617
2210508,22,PI,São Pedro do Piauí,-42.7236601721,-5.9139516466,14356
2210607,22,PI,São Raimundo Nonato,-42.6922851642,-9.0153604824,35035
2210623,22,PI,Sebastião Barros,-44.8332841775,-10.8166752206,3434
2210631,22,PI,Sebastião Leal,-44.0676917696,-7.5773856302,4311
2210656,22,PI,Sigefredo Pacheco,-41.7275592248,-4.9116891642,10074
2210706,22,PI,Simões,-40.8175090684,-7.5991371657,14664
2210805,22,PI,Simplício Mendes,-41.9109103617,-7.8579572939,12778
2210904,22,PI,Socorro do Piauí,-42.5046917237,-7.8649380571,4557
2210938,22,PI,Sussuapara,-41.3922677309,-7.0170105888,6801
2210953,22,PI,Tamboril do Piauí,-42.9096888302,-8.4004317801,2939
2210979,22,PI,Tanque do Piauí,-42.2839013405,-6.5963534674,2781
2211001,22,PI,Teresina,-42.8052704582,-5.0863419523,871126
2211100,22,PI,União,-42.862929716,-4.5860181591,44649
2211209,22,PI,Uruçuí,-44.5602559239,-7.2295033446,21746
2211308,22,PI,Valença do Piauí,-41.7405359913,-6.3981960227,20940
2211357,22,PI,Várzea Branca,-42.969444535,-9.2365410893,4930
2211407,22,PI,Várzea Grande,-42.2531016233,-6.5429475544,4382
2211506,22,PI,Vera Mendes,-41.47973675,-7.6028492829,3082
2211605,22,PI,Vila Nova do Piauí,-40.9378013965,-7.141046434,2935
2211704,22,PI,Wall Ferraz,-41.9089536203,-7.2357790064,4479
2300101,23,CE,Abaiara,-39.0475466362,-7.3569765959,11965
2300150,23,CE,Acarape,-38.705623771,-4.2231384094,15140
2300200,23,CE,Acaraú,-40.1182414712,-2.8853105401,63556
2300309,23,CE,Acopiara,-39.4557052762,-6.092761995,54687
2300408,23,CE,Aiuaba,-40.1231600776,-6.5632984401,17584
2300507,23,CE,Alcântaras,-40.5446381226,-3.5869837692,11846
2300606,23,CE,Altaneira,-39.7458206389,-6.9974983508,7712
2300705,23,CE,Alto Santo,-38.2727781487,-5.5220817397,16077
2300754,23,CE,Amontada,-39.8288227917,-3.3648778035,44195
2300804,23,CE,Antonina do Norte,-39.9823868419,-6.7796878471,7402
2300903,23,CE,Apuiarés,-39.4304227833,-3.9480185186,14742
2301000,23,CE,Aquiraz,-38.3898029589,-3.9061945,81581
2301109,23,CE,Aracati,-37.7727525989,-4.56706647,75392
2301208,23,CE,Aracoiaba,-38.8094409692,-4.370393807,26600
2301257,23,CE,Ararendá,-40.831096735,-4.751938272,10983
2301307,23,CE,Araripe,-40.1374458094,-7.2061837892,21707
2301406,23,CE,Aratuba,-39.0475545618,-4.416930645,11759
2301505,23,CE,Arneiroz,-40.1614437124,-6.319425803,7848
2301604,23,CE,Assaré,-39.8712747475,-6.8726071122,23537
2301703,23,CE,Aurora,-38.9769908769,-6.940391832,24567
2301802,23,CE,Baixio,-38.720125916,-6.7271620493,6318
2301851,23,CE,Banabuiú,-38.9257848049,-5.315047304,18313
2301901,23,CE,Barbalha,-39.3023163692,-7.3071721269,61662
2301950,23,CE,Barreira,-38.6385018296,-4.2887622668,22715
2302008,23,CE,Barro,-38.7798806461,-7.1682087267,22834
2302057,23,CE,Barroquinha,-41.1394815382,-3.0091167462,15069
2302107,23,CE,Baturité,-38.8800213756,-4.3312051564,36127
2302206,23,CE,Beberibe,-38.1232730421,-4.1747632212,54315
2302305,23,CE,Bela Cruz,-40.166842907,-3.0551067243,32851
2302404,23,CE,Boa Viagem,-39.7332823425,-5.1257438701,54680
2302503,23,CE,Brejo Santo,-38.9855138674,-7.4916380087,50195
2302602,23,CE,Camocim,-40.8475277409,-2.9009665746,64147
2302701,23,CE,Campos Sales,-40.3790031302,-7.0733835,27513
2302800,23,CE,Canindé,-39.3103429529,-4.3553442897,77484
2302909,23,CE,Capistrano,-38.9018287595,-4.4598966121,17830
2303006,23,CE,Caridade,-39.193032915,-4.2249600008,23011
2303105,23,CE,Cariré,-40.4738448077,-3.95161188,18470
2303204,23,CE,Caririaçu,-39.2843720296,-7.041528,27008
2303303,23,CE,Cariús,-39.4976886801,-6.5311279379,18700
2303402,23,CE,Carnaubal,-40.9356315773,-4.1639885624,17763
2303501,23,CE,Cascavel,-38.2396859407,-4.1314336782,72706
2303600,23,CE,Catarina,-39.8794662283,-6.1275562908,21041
2303659,23,CE,Catunda,-40.2058037894,-4.6515493857,10410
2303709,23,CE,Caucaia,-38.6640175358,-3.736487,368918
2303808,23,CE,Cedro,-39.059743148,-6.6049605,25612
2303907,23,CE,Chaval,-41.2445958219,-3.0389011891,13112
2303931,23,CE,Choró,-39.1374675316,-4.8425156593,13608
2303956,23,CE,Chorozinho,-38.5012856667,-4.302170914,20286
2304004,23,CE,Coreaú,-40.6569510758,-3.5494878611,23340
2304103,23,CE,Crateús,-40.6684001308,-5.1769505508,75241
2304202,23,CE,Crato,-39.4083902978,-7.2317527899,133913
2304236,23,CE,Croatá,-40.9090450982,-4.4140572655,18201
2304251,23,CE,Cruz,-40.1712787065,-2.9167080504,25121
2304269,23,CE,Deputado Irapuan Pinheiro,-39.2615417651,-5.9089623738,9698
2304277,23,CE,Ererê,-38.3472589621,-6.0313327299,7254
2304285,23,CE,Eusébio,-38.4451218386,-3.8869728867,55035
2304301,23,CE,Farias Brito,-39.5708350212,-6.9271099806,19330
2304350,23,CE,Forquilha,-40.2587689981,-3.7989577431,24680
2304400,23,CE,Fortaleza,-38.589927555,-3.723805035,2703391
2304459,23,CE,Fortim,-37.798975486,-4.4498049174,16776
2304509,23,CE,Frecheirinha,-40.8214052012,-3.7606119315,14195
2304608,23,CE,General Sampaio,-39.4535299504,-4.0510412747,7767
2304657,23,CE,Graça,-40.7555248996,-4.046938794,14415
2304707,23,CE,Granja,-40.829938991,-3.1189521562,55170
2304806,23,CE,Granjeiro,-39.2203088858,-6.8888843729,4784
2304905,23,CE,Groaíras,-40.3821460239,-3.9119541292,11219
2304954,23,CE,Guaiúba,-38.6344347805,-4.0402435005,26508
2305001,23,CE,Guaraciaba do Norte,-40.7526331779,-4.1624510671,40921
2305100,23,CE,Guaramiranga,-38.9406332851,-4.2620509186,5073
2305209,23,CE,Hidrolândia,-40.4018171244,-4.4079994443,20126
2305233,23,CE,Horizonte,-38.4942395586,-4.093278,69688
2305266,23,CE,Ibaretama,-38.8216783127,-4.8186515779,13385
2305308,23,CE,Ibiapina,-40.8939290198,-3.9361312622,25165
2305332,23,CE,Ibicuitinga,-38.6408630486,-4.9691664228,12730
2305357,23,CE,Icapuí,-37.3535630986,-4.7155494878,20183
2305407,23,CE,Icó,-38.8630851789,-6.4030312519,68303
2305506,23,CE,Iguatu,-39.2999056782,-6.36055472,103633
2305605,23,CE,Independência,-40.3093482606,-5.3980281003,26196
2305654,23,CE,Ipaporanga,-40.75796634,-4.9006297857,11597
2305704,23,CE,Ipaumirim,-38.7159037441,-6.7883612602,12507
2305803,23,CE,Ipu,-40.7187261447,-4.3134316852,42148
2305902,23,CE,Ipueiras,-40.7156965106,-4.543785495,38064
2306009,23,CE,Iracema,-38.3046616557,-5.8098425529,14351
2306108,23,CE,Irauçuba,-39.7922381151,-3.7454188017,24450
2306207,23,CE,Itaiçaba,-37.8216295137,-4.6834047119,7904
2306256,23,CE,Itaitinga,-38.5264051495,-3.9704590163,38661
2306306,23,CE,Itapajé,-39.5835332386,-3.6856731098,53448
2306405,23,CE,Itapipoca,-39.5834815758,-3.4994355,131687
2306504,23,CE,Itapiúna,-38.9206739559,-4.5547401747,20653
2306553,23,CE,Itarema,-39.9156777489,-2.923348,42595
2306603,23,CE,Itatira,-39.6179040159,-4.5289225623,22018
2306702,23,CE,Jaguaretama,-38.7625262979,-5.6108895632,18133
2306801,23,CE,Jaguaribara,-38.4630972956,-5.457502034,11580
2306900,23,CE,Jaguaribe,-38.6230050493,-5.886459045,34592
2307007,23,CE,Jaguaruana,-37.782391481,-4.8395551683,33960
2307106,23,CE,Jardim,-39.2841644574,-7.5855364657,27187
2307205,23,CE,Jati,-39.0051387612,-7.6927415948,8150
2307254,23,CE,Jijoca de Jericoacoara,-40.4387354019,-2.8996827089,20351
2307304,23,CE,Juazeiro do Norte,-39.3169933556,-7.210766,278264
2307403,23,CE,Jucás,-39.5267762434,-6.5225492731,24949
2307502,23,CE,Lavras da Mangabeira,-38.9672750539,-6.7547479768,31476
2307601,23,CE,Limoeiro do Norte,-38.0990948705,-5.15023902,60232
2307635,23,CE,Madalena,-39.5757886826,-4.8524341766,20031
2307650,23,CE,Maracanaú,-38.6244186466,-3.876964451,230986
2307700,23,CE,Maranguape,-38.6858512477,-3.89186946,131677
2307809,23,CE,Marco,-40.1516436427,-3.120707025,27822
2307908,23,CE,Martinópole,-40.6993551751,-3.2250122274,11407
2308005,23,CE,Massapê,-40.3421348648,-3.5238705843,39341
2308104,23,CE,Mauriti,-38.772795438,-7.387398,48370
2308203,23,CE,Meruoca,-40.4508809568,-3.5390066623,15309
2308302,23,CE,Milagres,-38.9431567662,-7.3104277968,27413
2308351,23,CE,Milhã,-39.2035741816,-5.6795641009,13129
2308377,23,CE,Miraíma,-39.970064882,-3.5685999066,13965
2308401,23,CE,Missão Velha,-39.1451977079,-7.2432315138,35566
2308500,23,CE,Mombaça,-39.6244052479,-5.74700454,43917
2308609,23,CE,Monsenhor Tabosa,-40.0700674616,-4.7830912915,17264
2308708,23,CE,Morada Nova,-38.3649073451,-5.0969520002,61590
2308807,23,CE,Moraújo,-40.6835989271,-3.4663632744,8833
2308906,23,CE,Morrinhos,-40.1241788929,-3.2288305343,22830
2309003,23,CE,Mucambo,-40.7452804652,-3.9060299796,14561
2309102,23,CE,Mulungu,-38.9930659239,-4.2995283201,11056
2309201,23,CE,Nova Olinda,-39.6794854727,-7.0841028114,15798
2309300,23,CE,Nova Russas,-40.5653033549,-4.7068083499,32487
2309409,23,CE,Novo Oriente,-40.7747672682,-5.5338648355,28737
2309458,23,CE,Ocara,-38.5985379828,-4.4850665445,25958
2309508,23,CE,Orós,-38.9135959845,-6.2427987837,21342
2309607,23,CE,Pacajus,-38.4670222649,-4.17054051,74145
2309706,23,CE,Pacatuba,-38.618299312,-3.9861200223,85647
2309805,23,CE,Pacoti,-38.9258889387,-4.2247654331,12313
2309904,23,CE,Pacujá,-40.6967361073,-3.9783943861,6565
2310001,23,CE,Palhano,-37.9662351611,-4.7439450768,9458
2310100,23,CE,Palmácia,-38.8450290663,-4.1489817745,13553
2310209,23,CE,Paracuru,-39.0295453441,-3.4116350092,35526
2310258,23,CE,Paraipaba,-39.1481155272,-3.4361967279,33232
2310308,23,CE,Parambu,-40.6942072413,-6.2103360017,31391
2310407,23,CE,Paramoti,-39.239466495,-4.097432332,12276
2310506,23,CE,Pedra Branca,-39.7139376447,-5.4546855,43359
2310605,23,CE,Penaforte,-39.0741275241,-7.8299146121,9207
2310704,23,CE,Pentecoste,-39.2670087315,-3.7962667362,38045
2310803,23,CE,Pereiro,-38.459136039,-6.045076902,16356
2310852,23,CE,Pindoretama,-38.3000879763,-4.0278039927,20964
2310902,23,CE,Piquet Carneiro,-39.4194062555,-5.8085695598,17210
2310951,23,CE,Pires Ferreira,-40.6465412478,-4.2421541432,11052
2311009,23,CE,Poranga,-40.9263795103,-4.7439507319,12358
2311108,23,CE,Porteiras,-39.1153314615,-7.5357464416,14920
2311207,23,CE,Potengi,-40.0321325357,-7.0901794696,11165
2311231,23,CE,Potiretama,-38.1579178532,-5.7216679037,6455
2311264,23,CE,Quiterianópolis,-40.7044888468,-5.8470092293,21246
2311306,23,CE,Quixadá,-39.0117446758,-4.9637,88899
2311355,23,CE,Quixelô,-39.2022943665,-6.2512119004,16116
2311405,23,CE,Quixeramobim,-39.294354227,-5.1984048374,82455
2311504,23,CE,Quixeré,-37.9905222251,-5.0687289544,22432
2311603,23,CE,Redenção,-38.7295707506,-4.2229581502,29238
2311702,23,CE,Reriutaba,-40.5846120037,-4.1415676008,18279
2311801,23,CE,Russas,-37.9754312969,-4.9397378154,79550
2311900,23,CE,Saboeiro,-39.9045806984,-6.5364333525,15757
2311959,23,CE,Salitre,-40.4647520646,-7.284528685,16714
2312007,23,CE,Santana do Acaraú,-40.2094628598,-3.4597753417,32851
2312106,23,CE,Santana do Cariri,-39.7379797815,-7.1808977833,17726
2312205,23,CE,Santa Quitéria,-40.1535078136,-4.3332705,43719
2312304,23,CE,São Benedito,-40.8644898758,-4.04472699,48354
2312403,23,CE,São Gonçalo do Amarante,-38.9720758653,-3.6056325,49306
2312502,23,CE,São João do Jaguaribe,-38.2719407044,-5.2686305505,7557
2312601,23,CE,São Luís do Curu,-39.241606185,-3.6730092532,13086
2312700,23,CE,Senador Pompeu,-39.3753253308,-5.5893437521,25418
2312809,23,CE,Senador Sá,-40.4637920044,-3.351789628,7758
2312908,23,CE,Sobral,-40.3486680337,-3.6880376838,212437
2313005,23,CE,Solonópole,-39.0082249132,-5.726351291,18389
2313104,23,CE,Tabuleiro do Norte,-38.1297371282,-5.2438038699,32079
2313203,23,CE,Tamboril,-40.3190685133,-4.8339285832,26199
2313252,23,CE,Tarrafas,-39.7584941949,-6.6825903147,8555
2313302,23,CE,Tauá,-40.2926246551,-6.0029989399,59259
2313351,23,CE,Tejuçuoca,-39.5768263617,-3.9897118086,19551
2313401,23,CE,Tianguá,-40.9917056227,-3.722674,77111
2313500,23,CE,Trairi,-39.2722318726,-3.2644201691,56653
2313559,23,CE,Tururu,-39.434363537,-3.5955952355,16588
2313609,23,CE,Ubajara,-40.907143928,-3.8484914352,35295
2313708,23,CE,Umari,-38.7013257159,-6.6472443752,7740
2313757,23,CE,Umirim,-39.3423844043,-3.6755618981,19976
2313807,23,CE,Uruburetama,-39.5081780698,-3.6230168337,22223
2313906,23,CE,Uruoca,-40.5611630277,-3.3132306604,13988
2313955,23,CE,Varjota,-40.4789932741,-4.1828222828,18520
2314003,23,CE,Várzea Alegre,-39.2989329971,-6.7918458556,41078
2314102,23,CE,Viçosa do Ceará,-41.091629075,-3.5660127532,61916
2400109,24,RN,Acari,-36.64373887,-6.4420850889,11106
2400208,24,RN,Açu,-36.91792322,-5.5719459992,58743
2400307,24,RN,Afonso Bezerra,-36.509148234,-5.4987342681,11024
2400406,24,RN,Água Nova,-38.2908249542,-6.2047167188,3293
2400505,24,RN,Alexandria,-38.0192888913,-6.4171363379,13529
2400604,24,RN,Almino Afonso,-37.7631253024,-6.1574206925,4685
2400703,24,RN,Alto do Rodrigues,-36.7594926142,-5.2938077876,14923
2400802,24,RN,Angicos,-36.6054328738,-5.6603653291,11695
2400901,24,RN,Antônio Martins,-37.8857345656,-6.2160044547,7162
2401008,24,RN,Apodi,-37.7977844763,-5.6637698192,35904
2401107,24,RN,Areia Branca,-37.1312717157,-4.9528976306,28156
2401206,24,RN,Arez,-35.1606360959,-6.1937122745,14526
2401305,24,RN,Campo Grande,-37.3088725642,-5.858114424,9686
2401404,24,RN,Baía Formosa,-35.0090361818,-6.3699923042,9373
2401453,24,RN,Baraúna,-37.6181801951,-5.0766181048,29112
2401503,24,RN,Barcelona,-35.926794528,-5.9481318483,3989
2401602,24,RN,Bento Fernandes,-35.8216988907,-5.6923833177,5552
2401651,24,RN,Bodó,-36.4138377023,-5.9880452499,2171
2401701,24,RN,Bom Jesus,-35.5888032898,-5.9863188523,10323
2401800,24,RN,Brejinho,-35.357354054,-6.1925790587,12873
2401859,24,RN,Caiçara do Norte,-36.0558571538,-5.0629944094,6572
2401909,24,RN,Caiçara do Rio do Vento,-35.9997904111,-5.7590871428,3745
2402006,24,RN,Caicó,-37.0964887712,-6.4591388314,68726
2402105,24,RN,Campo Redondo,-36.1825045694,-6.2433830532,11363
2402204,24,RN,Canguaretama,-35.128539664,-6.3749252157,34814
2402303,24,RN,Caraúbas,-37.5537021978,-5.7911761029,20588
2402402,24,RN,Carnaúba dos Dantas,-36.5952519215,-6.5607325174,8297
2402501,24,RN,Carnaubais,-36.8346423564,-5.3397853943,10972
2402600,24,RN,Ceará-Mirim,-35.4244869285,-5.6409835919,74268
2402709,24,RN,Cerro Corá,-36.3457414415,-6.0348271931,11182
2402808,24,RN,Coronel Ezequiel,-36.2147710444,-6.3834023903,5501
2402907,24,RN,Coronel João Pessoa,-38.4402581627,-6.2601122114,4918
2403004,24,RN,Cruzeta,-36.7917053203,-6.413176407,7968
2403103,24,RN,Currais Novos,-36.516219221,-6.264672219,45022
2403202,24,RN,Doutor Severiano,-38.3736830788,-6.0936873706,7068
2403251,24,RN,Parnamirim,-35.2592090739,-5.9103697583,272490
2403301,24,RN,Encanto,-38.3048789907,-6.1111342006,5697
2403400,24,RN,Equador,-36.7164124289,-6.9458427491,6064
2403509,24,RN,Espírito Santo,-35.3170907892,-6.3355717032,10463
2403608,24,RN,Extremoz,-35.314025432,-5.7027099362,29282
2403707,24,RN,Felipe Guerra,-37.6913850557,-5.6019617698,6009
2403756,24,RN,Fernando Pedroza,-36.5324535354,-5.6960157815,3081
2403806,24,RN,Florânia,-36.8140762988,-6.126951955,9772
2403905,24,RN,Francisco Dantas,-38.1256497554,-6.0880967167,2801
2404002,24,RN,Frutuoso Gomes,-37.840960754,-6.1562327993,4015
2404101,24,RN,Galinhos,-36.27464007,-5.0916897784,2903
2404200,24,RN,Goianinha,-35.2177861245,-6.25059039,27004
2404309,24,RN,Governador Dix-Sept Rosado,-37.521911843,-5.4589138421,13115
2404408,24,RN,Grossos,-37.15748416,-4.9755148071,10541
2404507,24,RN,Guamaré,-36.3181443774,-5.1073629546,16261
2404606,24,RN,Ielmo Marinho,-35.5528293751,-5.8153150383,14033
2404705,24,RN,Ipanguaçu,-36.8528746047,-5.4971483533,15759
2404804,24,RN,Ipueira,-37.1978561299,-6.8155507619,2264
2404853,24,RN,Itajá,-36.8698181053,-5.643547609,7641
2404903,24,RN,Itaú,-37.9882686257,-5.8379360734,5916
2405009,24,RN,Jaçanã,-36.2055929077,-6.4249733474,9341
2405108,24,RN,Jandaíra,-36.1305852719,-5.35528,6907
2405207,24,RN,Janduís,-37.4092111089,-6.0160927029,5228
2405306,24,RN,Boa Saúde,-35.6008919626,-6.1560980226,10367
2405405,24,RN,Japi,-35.945934828,-6.4605660133,4935
2405504,24,RN,Jardim de Angicos,-35.9699543298,-5.6526312124,2600
2405603,24,RN,Jardim de Piranhas,-37.3492178523,-6.3800975492,15044
2405702,24,RN,Jardim do Seridó,-36.7745815234,-6.5863362517,12397
2405801,24,RN,João Câmara,-35.8167878739,-5.5384233834,35360
2405900,24,RN,João Dias,-37.796960782,-6.2761140978,2653
2406007,24,RN,José da Penha,-38.2844030705,-6.3126884428,5941
2406106,24,RN,Jucurutu,-37.0202258294,-6.0334187841,18335
2406155,24,RN,Jundiá,-35.3277885219,-6.2691693311,3945
2406205,24,RN,Lagoa d'Anta,-35.5997951777,-6.3915023235,6851
2406304,24,RN,Lagoa de Pedras,-35.4334827322,-6.149739102,7624
2406403,24,RN,Lagoa de Velhos,-35.8706988331,-5.9999155193,2732
2406502,24,RN,Lagoa Nova,-36.4589606696,-6.0976692964,15880
2406601,24,RN,Lagoa Salgada,-35.4724975676,-6.1258182619,8348
2406700,24,RN,Lajes,-36.2427351264,-5.6988303588,11410
2406809,24,RN,Lajes Pintadas,-36.1184417929,-6.1514320721,4768
2406908,24,RN,Lucrécia,-37.8156328477,-6.1169236352,4053
2407005,24,RN,Luís Gomes,-38.3864203751,-6.4140281424,10175
2407104,24,RN,Macaíba,-35.3552371336,-5.8572366196,82828
2407203,24,RN,Macau,-36.6349731819,-5.1133676503,32260
2407252,24,RN,Major Sales,-38.3234550212,-6.4037565657,4102
2407302,24,RN,Marcelino Vieira,-38.1666126187,-6.2935497878,8325
2407401,24,RN,Martins,-37.9113273957,-6.0963474929,8790
2407500,24,RN,Maxaranguape,-35.2620748681,-5.5054562658,12714
2407609,24,RN,Messias Targino,-37.5120589302,-6.0764975053,4665
2407708,24,RN,Montanhas,-35.2876919576,-6.4822429389,11166
2407807,24,RN,Monte Alegre,-35.3320992693,-6.0678766241,22698
2407906,24,RN,Monte das Gameleiras,-35.7866071235,-6.4394660165,2063
2408003,24,RN,Mossoró,-37.3568741367,-5.1938012347,303792
2408102,24,RN,Natal,-35.2522547281,-5.7508985376,896708
2408201,24,RN,Nísia Floresta,-35.2113095645,-6.0907141459,28266
2408300,24,RN,Nova Cruz,-35.4323003946,-6.480064792,37554
2408409,24,RN,Olho-d'Água do Borges,-37.7118209786,-5.9592583875,4231
2408508,24,RN,Ouro Branco,-36.9462950767,-6.6996589474,4813
2408607,24,RN,Paraná,-38.3111288501,-6.4853305013,4298
2408706,24,RN,Paraú,-37.1016501353,-5.7770555176,3732
2408805,24,RN,Parazinho,-35.8449895224,-5.2307807345,5307
2408904,24,RN,Parelhas,-36.6578048562,-6.6887551972,21611
2408953,24,RN,Rio do Fogo,-35.3848720422,-5.2715586596,10961
2409100,24,RN,Passa e Fica,-35.6473522143,-6.4291154937,13667
2409209,24,RN,Passagem,-35.3755657141,-6.274442213,3114
2409308,24,RN,Patu,-37.6401023995,-6.1015320673,12861
2409332,24,RN,Santa Maria,-35.6903638553,-5.8385187011,5689
2409407,24,RN,Pau dos Ferros,-38.2032615201,-6.1147318387,30802
2409506,24,RN,Pedra Grande,-35.8759906401,-5.1493874335,3163
2409605,24,RN,Pedra Preta,-36.103135819,-5.5819091562,2419
2409704,24,RN,Pedro Avelino,-36.3852292559,-5.5240021821,6591
2409803,24,RN,Pedro Velho,-35.2229392417,-6.4331894882,14881
2409902,24,RN,Pendências,-36.7191460403,-5.2567881709,15411
2410009,24,RN,Pilões,-38.0444431555,-6.2657224402,3900
2410108,24,RN,Poço Branco,-35.65501177,-5.6188515041,15646
2410207,24,RN,Portalegre,-37.9851948257,-6.0243280135,7944
2410256,24,RN,Porto do Mangue,-36.7805380667,-5.0696701522,6605
2410306,24,RN,Serra Caiada,-35.7056053224,-6.1049127856,10646
2410405,24,RN,Pureza,-35.5622682321,-5.4659185859,9825
2410504,24,RN,Rafael Fernandes,-38.2225028857,-6.1864951981,5158
2410603,24,RN,Rafael Godeiro,-37.7159740682,-6.0782966478,3214
2410702,24,RN,Riacho da Cruz,-37.9502747099,-5.935802522,3648
2410801,24,RN,Riacho de Santana,-38.3148330294,-6.2647305468,4194
2410900,24,RN,Riachuelo,-35.8262747639,-5.8139469647,8310
2411007,24,RN,Rodolfo Fernandes,-38.0628743291,-5.7879936117,4457
2411056,24,RN,Tibau,-37.2513026681,-4.8414374104,4173
2411106,24,RN,Ruy Barbosa,-35.9354841632,-5.879428941,3584
2411205,24,RN,Santa Cruz,-36.0205165703,-6.2300756234,40295
2411403,24,RN,Santana do Matos,-36.6541049651,-5.9577271554,11808
2411429,24,RN,Santana do Seridó,-36.7368516419,-6.7701517529,2699
2411502,24,RN,Santo Antônio,-35.475136984,-6.3051739213,24422
2411601,24,RN,São Bento do Norte,-36.0354313534,-5.0595010601,2687
2411700,24,RN,São Bento do Trairí,-36.0868875014,-6.3444812167,4541
2411809,24,RN,São Fernando,-37.1854030398,-6.383861073,3606
2411908,24,RN,São Francisco do Oeste,-38.1692961808,-6.0006365705,4281
2412005,24,RN,São Gonçalo do Amarante,-35.3311560931,-5.7895555402,104919
2412104,24,RN,São João do Sabugi,-37.204139658,-6.71122435,6221
2412203,24,RN,São José de Mipibu,-35.2402746487,-6.0704657116,44566
2412302,24,RN,São José do Campestre,-35.7121150331,-6.3155639806,12901
2412401,24,RN,São José do Seridó,-36.8832588929,-6.4487985346,4696
2412500,24,RN,São Miguel,-38.4963439737,-6.2123429186,23789
2412559,24,RN,São Miguel do Gostoso,-35.6412835112,-5.1228571163,10441
2412609,24,RN,São Paulo do Potengi,-35.7643696369,-5.8998203338,17858
2412708,24,RN,São Pedro,-35.6403110302,-5.8979802825,5889
2412807,24,RN,São Rafael,-36.8903975641,-5.8009342266,8183
2412906,24,RN,São Tomé,-36.0736631486,-5.9730223471,11051
2413003,24,RN,São Vicente,-36.6886618517,-6.2149638782,6476
2413102,24,RN,Senador Elói de Souza,-35.6956637752,-6.0362264288,6167
2413201,24,RN,Senador Georgino Avelino,-35.124176228,-6.1586943344,4527
2413300,24,RN,Serra de São Bento,-35.7034898199,-6.4153669923,5739
2413359,24,RN,Serra do Mel,-37.0413013452,-5.1652413482,12225
2413409,24,RN,Serra Negra do Norte,-37.3949730106,-6.6639843364,8105
2413508,24,RN,Serrinha,-35.501343234,-6.2770915257,6128
2413557,24,RN,Serrinha dos Pintos,-37.9615790489,-6.1141293698,4832
2413607,24,RN,Severiano Melo,-37.956580706,-5.7781877653,1743
2413706,24,RN,Sítio Novo,-35.9104491799,-6.1040915828,5600
2413805,24,RN,Taboleiro Grande,-38.0435675406,-5.9267522922,2606
2413904,24,RN,Taipu,-35.5988465613,-5.6196666753,12314
2414001,24,RN,Tangará,-35.8001895983,-6.1973573683,16008
2414100,24,RN,Tenente Ananias,-38.1792978897,-6.4775437122,10923
2414159,24,RN,Tenente Laurentino Cruz,-36.7206601449,-6.1472301595,6085
2414209,24,RN,Tibau do Sul,-35.0926003672,-6.1880717593,14694
2414308,24,RN,Timbaúba dos Batistas,-37.2713399064,-6.4632892631,2427
2414407,24,RN,Touros,-35.4552931657,-5.2026068014,33716
2414456,24,RN,Triunfo Potiguar,-37.1837968506,-5.8669590186,3195
2414506,24,RN,Umarizal,-37.8132584901,-5.9899019796,10485
2414605,24,RN,Upanema,-37.260146942,-5.6417976593,14937
2414704,24,RN,Várzea,-35.3747906644,-6.3487998907,5529
2414753,24,RN,Venha-Ver,-38.4912301677,-6.3194228369,4232
2414803,24,RN,Vera Cruz,-35.4281095272,-6.0456084818,12789
2414902,24,RN,Viçosa,-37.947409016,-5.9918571747,1731
2415008,24,RN,Vila Flor,-35.0761274954,-6.3127918709,3217
2500106,25,PB,Água Branca,-37.6422090443,-7.5110701506,10375
2500205,25,PB,Aguiar,-38.1775818446,-7.0948057625,5622
2500304,25,PB,Alagoa Grande,-35.6338919827,-7.036775,28384
2500403,25,PB,Alagoa Nova,-35.7594565398,-7.0577988253,20992
2500502,25,PB,Alagoinha,-35.5454913506,-6.9481404046,14629
2500536,25,PB,Alcantil,-36.0606043309,-7.7414770383,5527
2500577,25,PB,Algodão de Jandaíra,-36.0060933988,-6.9046940378,2588
2500601,25,PB,Alhandra,-34.9119851554,-7.4329953022,19865
2500700,25,PB,São João do Rio do Peixe,-38.4454535708,-6.7344308283,18020
2500734,25,PB,Amparo,-37.0647752481,-7.5672115216,2264
2500775,25,PB,Aparecida,-38.0833382545,-6.7836951415,8482
2500809,25,PB,Araçagi,-35.3832990883,-6.8516966175,16857
2500908,25,PB,Arara,-35.7595417216,-6.8261917212,13613
2501005,25,PB,Araruna,-35.7359805119,-6.5314470213,20610
2501104,25,PB,Areia,-35.7033914011,-6.965515,22493
2501153,25,PB,Areia de Baraúnas,-36.9435079584,-7.123695013,2105
2501203,25,PB,Areial,-35.9228094313,-7.0499610887,7054
2501302,25,PB,Aroeiras,-35.7155929489,-7.5484620227,19081
2501351,25,PB,Assunção,-36.7331874761,-7.0763269437,4067
2501401,25,PB,Baía da Traição,-34.949931095,-6.679529123,9197
2501500,25,PB,Bananeiras,-35.6315999028,-6.749637275,21220
2501534,25,PB,Baraúna,-36.253041353,-6.6424050352,5033
2501575,25,PB,Barra de Santana,-35.9963140811,-7.5228337806,8338
2501609,25,PB,Barra de Santa Rosa,-36.0597726422,-6.7202526776,15607
2501708,25,PB,Barra de São Miguel,-36.3215359678,-7.7526706262,6095
2501807,25,PB,Bayeux,-34.9291858201,-7.132276485,97519
2501906,25,PB,Belém,-35.5362740821,-6.6940426098,17733
2502003,25,PB,Belém do Brejo do Cruz,-37.5395024823,-6.1885749977,7356
2502052,25,PB,Bernardino Batista,-38.5488692212,-6.4535477932,3571
2502102,25,PB,Boa Ventura,-38.2189508765,-7.4222821453,5248
2502151,25,PB,Boa Vista,-36.2353736588,-7.2579130806,7218
2502201,25,PB,Bom Jesus,-38.655142807,-6.8179576512,2588
2502300,25,PB,Bom Sucesso,-37.9300236974,-6.445046723,4937
2502409,25,PB,Bonito de Santa Fé,-38.5164953051,-7.3107630819,12126
2502508,25,PB,Boqueirão,-36.1334047507,-7.4826479199,17934
2502607,25,PB,Igaracy,-38.1466946448,-7.1793192914,6092
2502706,25,PB,Borborema,-35.5993759656,-6.8043058831,5311
2502805,25,PB,Brejo do Cruz,-37.5001626417,-6.3477076068,14287
2502904,25,PB,Brejo dos Santos,-37.8237101751,-6.3761833082,6479
2503001,25,PB,Caaporã,-34.917850144,-7.5142876414,22079
2503100,25,PB,Cabaceiras,-36.2843418898,-7.4906698737,5710
2503209,25,PB,Cabedelo,-34.8394300208,-6.9669830633,69773
2503308,25,PB,Cachoeira dos Índios,-38.6783031917,-6.9239358528,10364
2503407,25,PB,Cacimba de Areia,-37.1582169542,-7.1284733769,3708
2503506,25,PB,Cacimba de Dentro,-35.7928209014,-6.640016747,17169
2503555,25,PB,Cacimbas,-37.0604021094,-7.2123593026,7225
2503605,25,PB,Caiçara,-35.4691142821,-6.6174697909,7182
2503704,25,PB,Cajazeiras,-38.5605303718,-6.8904645,62576
2503753,25,PB,Cajazeirinhas,-37.7991843341,-6.9626928132,3217
2503803,25,PB,Caldas Brandão,-35.342382092,-7.171751437,6077
2503902,25,PB,Camalaú,-36.8316105815,-7.8912420951,6048
2504009,25,PB,Campina Grande,-35.8838591148,-7.22149704,413830
2504033,25,PB,Capim,-35.1677387141,-6.9108443749,6715
2504074,25,PB,Caraúbas,-36.4954780727,-7.7310993724,4206
2504108,25,PB,Carrapateira,-38.3442167253,-7.0396542415,2714
2504157,25,PB,Casserengue,-35.8163048295,-6.7837603257,7530
2504207,25,PB,Catingueira,-37.6107199033,-7.1252097836,4938
2504306,25,PB,Catolé do Rocha,-37.7485000906,-6.346752995,30819
2504355,25,PB,Caturité,-36.0206588241,-7.4196183207,4898
2504405,25,PB,Conceição,-38.5091579595,-7.5602250866,19030
2504504,25,PB,Condado,-37.6039713346,-6.9123067773,6662
2504603,25,PB,Conde,-34.9071513371,-7.2635718267,25341
2504702,25,PB,Congo,-36.6615328552,-7.7925707775,4787
2504801,25,PB,Coremas,-37.9455372752,-7.0169182842,15438
2504850,25,PB,Coxixola,-36.6048295219,-7.6287969606,1948
2504900,25,PB,Cruz do Espírito Santo,-35.0914891262,-7.1413369619,17599
2505006,25,PB,Cubati,-36.3479297162,-6.8623606092,7866
2505105,25,PB,Cuité,-36.1532081655,-6.4855553012,20331
2505204,25,PB,Cuitegi,-35.5257412327,-6.8958137426,6748
2505238,25,PB,Cuité de Mamanguape,-35.2528248925,-6.9141574734,6360
2505279,25,PB,Curral de Cima,-35.2670572688,-6.7174300292,5209
2505303,25,PB,Curral Velho,-38.2003914462,-7.5380851077,2508
2505352,25,PB,Damião,-35.9099425358,-6.6318974073,5409
2505402,25,PB,Desterro,-37.0921693225,-7.2914475304,8332
2505501,25,PB,Vista Serrana,-37.5679145327,-6.7406872724,3850
2505600,25,PB,Diamante,-38.2650442086,-7.4235834212,6506
2505709,25,PB,Dona Inês,-35.6225406506,-6.6021227352,10375
2505808,25,PB,Duas Estradas,-35.4181768048,-6.6881329547,3569
2505907,25,PB,Emas,-37.7145859751,-7.1079922324,3556
2506004,25,PB,Esperança,-35.858593287,-7.020685,33386
2506103,25,PB,Fagundes,-35.7846088758,-7.3630616044,11180
2506202,25,PB,Frei Martinho,-36.4520440619,-6.4045158524,2989
2506251,25,PB,Gado Bravo,-35.7906509035,-7.5829411773,8292
2506301,25,PB,Guarabira,-35.4899649849,-6.852715,59389
2506400,25,PB,Gurinhém,-35.4281860624,-7.1232156684,14125
2506509,25,PB,Gurjão,-36.4862761218,-7.2462216609,3477
2506608,25,PB,Ibiara,-38.4055678575,-7.4978512245,5877
2506707,25,PB,Imaculada,-37.5100748564,-7.3885372613,11877
2506806,25,PB,Ingá,-35.6176892168,-7.2950269135,18184
2506905,25,PB,Itabaiana,-35.3375333859,-7.3309315,24363
2507002,25,PB,Itaporanga,-38.1525731067,-7.3039804631,24960
2507101,25,PB,Itapororoca,-35.2462957146,-6.829920163,18978
2507200,25,PB,Itatuba,-35.62816125,-7.374957755,11069
2507309,25,PB,Jacaraú,-35.2942824484,-6.6129685867,14467
2507408,25,PB,Jericó,-37.8086413774,-6.5561949909,7751
2507507,25,PB,João Pessoa,-34.8733848135,-7.14938202,825796
2507606,25,PB,Juarez Távora,-35.5911781067,-7.1663446273,8014
2507705,25,PB,Juazeirinho,-36.5707010055,-7.0653683106,18422
2507804,25,PB,Junco do Seridó,-36.7164412261,-6.9933376489,7238
2507903,25,PB,Juripiranga,-35.2394540486,-7.3702907732,10830
2508000,25,PB,Juru,-37.819264489,-7.5343071384,9831
2508109,25,PB,Lagoa,-37.9150900701,-6.5942086133,4640
2508208,25,PB,Lagoa de Dentro,-35.3770436482,-6.6705990497,7754
2508307,25,PB,Lagoa Seca,-35.8514401351,-7.1584124886,27728
2508406,25,PB,Lastro,-38.1792184928,-6.5165306258,2698
2508505,25,PB,Livramento,-36.948629304,-7.3790028228,7274
2508554,25,PB,Logradouro,-35.4432993556,-6.6153714223,4406
2508604,25,PB,Lucena,-34.8746090974,-6.8988493384,13344
2508703,25,PB,Mãe d'Água,-37.428160995,-7.2570490927,3988
2508802,25,PB,Malta,-37.5177757104,-6.9071851235,5745
2508901,25,PB,Mamanguape,-35.1238932021,-6.8337151469,45385
2509008,25,PB,Manaíra,-38.1530716661,-7.7046141416,10988
2509057,25,PB,Marcação,-35.0139243935,-6.770054174,8746
2509107,25,PB,Mari,-35.3185424166,-7.056384,21895
2509156,25,PB,Marizópolis,-38.3553961304,-6.844674277,6689
2509206,25,PB,Massaranduba,-35.7375152077,-7.1801994711,14077
2509305,25,PB,Mataraca,-35.0485576738,-6.6005186544,8642
2509339,25,PB,Matinhas,-35.7709374162,-7.1211683437,4528
2509370,25,PB,Mato Grosso,-37.7115726982,-6.5426334912,2944
2509396,25,PB,Matureia,-37.3504338851,-7.2659300019,6690
2509404,25,PB,Mogeiro,-35.482424602,-7.3094805323,13238
2509503,25,PB,Montadas,-35.9582754293,-7.0890963385,5806
2509602,25,PB,Monte Horebe,-38.5836574944,-7.2095264023,4867
2509701,25,PB,Monteiro,-37.1226806806,-7.892217,33638
2509800,25,PB,Mulungu,-35.4651434243,-7.0278860316,9962
2509909,25,PB,Natuba,-35.5561446826,-7.6409788248,10449
2510006,25,PB,Nazarezinho,-38.3189125786,-6.9127009191,7271
2510105,25,PB,Nova Floresta,-36.2024954255,-6.4561399418,10614
2510204,25,PB,Nova Olinda,-38.0410502008,-7.4768427808,5892
2510303,25,PB,Nova Palmeira,-36.4187129744,-6.6766058426,5011
2510402,25,PB,Olho d'Água,-37.7526855286,-7.2249726485,6399
2510501,25,PB,Olivedos,-36.2436652194,-6.9882256223,3989
2510600,25,PB,Ouro Velho,-37.1543789425,-7.6186521245,3052
2510659,25,PB,Parari,-36.6583244439,-7.3167001008,1747
2510709,25,PB,Passagem,-37.0543919437,-7.1328195967,2453
2510808,25,PB,Patos,-37.2769133373,-7.0244916682,108766
2510907,25,PB,Paulista,-37.621055674,-6.5940615798,12411
2511004,25,PB,Pedra Branca,-38.0722463078,-7.4265644261,3802
2511103,25,PB,Pedra Lavrada,-36.4720503638,-6.7578814606,7954
2511202,25,PB,Pedras de Fogo,-35.1131779827,-7.4015385,28607
2511301,25,PB,Piancó,-37.9265190012,-7.192569876,16147
2511400,25,PB,Picuí,-36.3470460251,-6.5101356574,18737
2511509,25,PB,Pilar,-35.2598804076,-7.2598879849,12036
2511608,25,PB,Pilões,-35.6155405947,-6.8692205282,6518
2511707,25,PB,Pilõezinhos,-35.530585704,-6.840568783,4937
2511806,25,PB,Pirpirituba,-35.4977157928,-6.7808000985,10590
2511905,25,PB,Pitimbu,-34.8139304143,-7.482413396,19478
2512002,25,PB,Pocinhos,-36.056442281,-7.0786172694,18848
2512036,25,PB,Poço Dantas,-38.4971655332,-6.407175642,3877
2512077,25,PB,Poço de José de Moura,-38.5099999913,-6.5769188159,4366
2512101,25,PB,Pombal,-37.7982672714,-6.769855485,32803
2512200,25,PB,Prata,-37.0823339752,-7.6969830843,4265
2512309,25,PB,Princesa Isabel,-37.9936640096,-7.733866459,23749
2512408,25,PB,Puxinanã,-35.9584940731,-7.1489066441,13801
2512507,25,PB,Queimadas,-35.8994339112,-7.3607915,44388
2512606,25,PB,Quixabá,-37.1470987043,-7.0308176066,2009
2512705,25,PB,Remígio,-35.7958331901,-6.966292952,19973
2512721,25,PB,Pedro Régis,-35.2930058538,-6.6444714973,6139
2512747,25,PB,Riachão,-35.6627216944,-6.5426765279,3650
2512754,25,PB,Riachão do Bacamarte,-35.6553876583,-7.2505947733,4562
2512762,25,PB,Riachão do Poço,-35.261242692,-7.1515036157,4571
2512788,25,PB,Riacho de Santo Antônio,-36.1567097727,-7.6902953445,1999
2512804,25,PB,Riacho dos Cavalos,-37.653835391,-6.4364942491,8555
2512903,25,PB,Rio Tinto,-35.078852226,-6.8084485,24258
2513000,25,PB,Salgadinho,-36.8455028943,-7.1030347331,3975
2513109,25,PB,Salgado de São Félix,-35.4433017395,-7.3553573137,12123
2513158,25,PB,Santa Cecília,-35.8774744666,-7.7429059622,6526
2513208,25,PB,Santa Cruz,-38.060555592,-6.5350141675,6579
2513307,25,PB,Santa Helena,-38.6427896707,-6.7186941996,5853
2513356,25,PB,Santa Inês,-38.5595999296,-7.6277797185,3591
2513406,25,PB,Santa Luzia,-36.92167833,-6.8718632619,15470
2513505,25,PB,Santana de Mangueira,-38.3325811539,-7.5512134095,5098
2513604,25,PB,Santana dos Garrotes,-37.9850430999,-7.3876444597,6942
2513653,25,PB,Joca Claudino,-38.4791522142,-6.4840552967,2640
2513703,25,PB,Santa Rita,-34.9658392783,-7.1380845,138093
2513802,25,PB,Santa Teresinha,-37.4417177955,-7.0841917053,4550
2513851,25,PB,Santo André,-36.6309754331,-7.2204891228,2496
2513901,25,PB,São Bento,-37.4493496644,-6.4893075408,34650
2513927,25,PB,São Bentinho,-37.7227213006,-6.890308509,4602
2513943,25,PB,São Domingos do Cariri,-36.4359294005,-7.6329907025,2645
2513968,25,PB,São Domingos,-37.9426027474,-6.8159249809,3119
2513984,25,PB,São Francisco,-38.0971412339,-6.6192799824,3377
2514008,25,PB,São João do Cariri,-36.5315209359,-7.3902013358,4170
2514107,25,PB,São João do Tigre,-36.8457433216,-8.0810428894,4408
2514206,25,PB,São José da Lagoa Tapada,-38.1577701893,-6.9442314894,7622
2514305,25,PB,São José de Caiana,-38.2978233702,-7.2491596311,6394
2514404,25,PB,São José de Espinharas,-37.32511484,-6.8441796085,4631
2514453,25,PB,São José dos Ramos,-35.3779610545,-7.2471273572,6037
2514503,25,PB,São José de Piranhas,-38.5010748206,-7.1208699574,20406
2514552,25,PB,São José de Princesa,-38.0988027203,-7.7429694508,3898
2514602,25,PB,São José do Bonfim,-37.3092447285,-7.1609149774,3619
2514651,25,PB,São José do Brejo do Cruz,-37.3538296762,-6.2129153407,1821
2514701,25,PB,São José do Sabugi,-36.7974932182,-6.7755314068,4153
2514800,25,PB,São José dos Cordeiros,-36.8027778195,-7.392642697,3607
2514909,25,PB,São Mamede,-37.0948573852,-6.9302283714,7682
2515005,25,PB,São Miguel de Taipu,-35.2104513919,-7.2492335304,7450
2515104,25,PB,São Sebastião de Lagoa de Roça,-35.8664139115,-7.1009459552,11793
2515203,25,PB,São Sebastião do Umbuzeiro,-37.008416978,-8.1571187547,3534
2515302,25,PB,Sapé,-35.2304326165,-7.087111,52977
2515401,25,PB,São Vicente do Seridó,-36.4107641096,-6.8569085632,10919
2515500,25,PB,Serra Branca,-36.6556668629,-7.4805025245,13807
2515609,25,PB,Serra da Raiz,-35.4427388369,-6.6855176501,3114
2515708,25,PB,Serra Grande,-38.374894787,-7.2141477578,2921
2515807,25,PB,Serra Redonda,-35.6742704972,-7.1825494247,7001
2515906,25,PB,Serraria,-35.6441425708,-6.8170889428,6037
2515930,25,PB,Sertãozinho,-35.4417507457,-6.750797546,5152
2515971,25,PB,Sobrado,-35.238195479,-7.1445756136,7845
2516003,25,PB,Solânea,-35.6561584077,-6.7598975,26051
2516102,25,PB,Soledade,-36.3626648604,-7.0587413778,15211
2516151,25,PB,Sossêgo,-36.2482238788,-6.7675275289,3631
2516201,25,PB,Sousa,-38.2296050806,-6.763378005,69997
2516300,25,PB,Sumé,-36.8802761457,-7.6710536151,17096
2516409,25,PB,Tacima,-35.6388366565,-6.4889169425,11024
2516508,25,PB,Taperoá,-36.8289985343,-7.209539351,15505
2516607,25,PB,Tavares,-37.8785919325,-7.6357084462,14791
2516706,25,PB,Teixeira,-37.2515615776,-7.2237029086,15333
2516755,25,PB,Tenório,-36.6279998744,-6.9382604029,3103
2516805,25,PB,Triunfo,-38.5980983313,-6.5768355074,9473
2516904,25,PB,Uiraúna,-38.4070270102,-6.5249270951,15356
2517001,25,PB,Umbuzeiro,-35.6714708229,-7.6982063294,9914
2517100,25,PB,Várzea,-36.9927210043,-6.7708072468,2870
2517209,25,PB,Vieirópolis,-38.2778434981,-6.5457135517,5395
2517407,25,PB,Zabelê,-37.0935519729,-8.0768741972,2269
2600054,26,PE,Abreu e Lima,-34.8991305847,-7.90444899,100698
2600104,26,PE,Afogados da Ingazeira,-37.6376860181,-7.7483275858,37546
2600203,26,PE,Afrânio,-41.0057973411,-8.5110912838,19981
2600302,26,PE,Agrestina,-35.9467768375,-8.455973,25240
2600401,26,PE,Água Preta,-35.5185573512,-8.7091225523,37386
2600500,26,PE,Águas Belas,-37.1219571686,-9.1145895,43923
2600609,26,PE,Alagoinha,-36.7754560083,-8.466270523,14798
2600708,26,PE,Aliança,-35.2285014971,-7.6047298085,38408
2600807,26,PE,Altinho,-36.0596997586,-8.4895925,22996
2600906,26,PE,Amaraji,-35.450772921,-8.378487,22910
2601003,26,PE,Angelim,-36.2848143555,-8.8903742079,11301
2601052,26,PE,Araçoiaba,-35.0939665275,-7.7856418725,20936
2601102,26,PE,Araripina,-40.502460575,-7.5781415,85301
2601201,26,PE,Arcoverde,-37.0565055646,-8.4239405,75295
2601300,26,PE,Barra de Guabiraba,-35.6628188858,-8.4209350376,14632
2601409,26,PE,Barreiros,-35.1990859873,-8.8141379901,42866
2601508,26,PE,Belém de Maria,-35.8399240901,-8.6212019106,12169
2601607,26,PE,Belém do São Francisco,-38.965567,-8.7461845,20730
2601706,26,PE,Belo Jardim,-36.420035083,-8.3352954394,76930
2601805,26,PE,Betânia,-38.0387381366,-8.2698407896,12811
2601904,26,PE,Bezerros,-35.7544879459,-8.2353595,60960
2602001,26,PE,Bodocó,-39.936163185,-7.779342627,38605
2602100,26,PE,Bom Conselho,-36.6793143857,-9.1633829849,48975
2602209,26,PE,Bom Jardim,-35.5871395023,-7.7995121807,40038
2602308,26,PE,Bonito,-35.7285279259,-8.4722605,38101
2602407,26,PE,Brejão,-36.5646966593,-9.0272491507,8981
2602506,26,PE,Brejinho,-37.287334554,-7.345671276,7489
2602605,26,PE,Brejo da Madre de Deus,-36.3703914413,-8.1489565,51696
2602704,26,PE,Buenos Aires,-35.3295704142,-7.72437221,13224
2602803,26,PE,Buíque,-37.1569881148,-8.6220590407,59448
2602902,26,PE,Cabo de Santo Agostinho,-35.0384889718,-8.2898642303,210796
2603009,26,PE,Cabrobó,-39.309841338,-8.5151054833,34778
2603108,26,PE,Cachoeirinha,-36.2359914118,-8.486831073,20618
2603207,26,PE,Caetés,-36.6248040076,-8.7755948448,29065
2603306,26,PE,Calçado,-36.3332880795,-8.7383779437,10983
2603405,26,PE,Calumbi,-38.1537459243,-7.9384273267,5744
2603454,26,PE,Camaragibe,-34.9957213564,-8.0205217675,159945
2603504,26,PE,Camocim de São Félix,-35.7651947266,-8.3621380401,19032
2603603,26,PE,Camutanga,-35.2827906438,-7.4070824199,8592
2603702,26,PE,Canhotinho,-36.1935748781,-8.8838705622,24743
2603801,26,PE,Capoeiras,-36.6237980173,-8.7361426797,20048
2603900,26,PE,Carnaíba,-37.7933989026,-7.8030582189,19666
2603926,26,PE,Carnaubeira da Penha,-38.7434219469,-8.3206079647,13117
2604007,26,PE,Carpina,-35.2580606059,-7.8468867164,85131
2604106,26,PE,Caruaru,-35.9670733601,-8.285898,369343
2604155,26,PE,Casinhas,-35.7253231034,-7.7432065679,14395
2604205,26,PE,Catende,-35.7216666573,-8.6703075,43778
2604304,26,PE,Cedro,-39.2371382153,-7.7174692333,11972
2604403,26,PE,Chã de Alegria,-35.2137267362,-7.9979007802,13641
2604502,26,PE,Chã Grande,-35.4647408125,-8.2401127765,21929
2604601,26,PE,Condado,-35.1041184907,-7.589382255,26755
2604700,26,PE,Correntes,-36.3297018953,-9.1286655015,18327
2604809,26,PE,Cortês,-35.5415869,-8.4751512173,12543
2604908,26,PE,Cumaru,-35.6946989631,-8.0150324429,9494
2605004,26,PE,Cupira,-35.9502573664,-8.6112826602,24237
2605103,26,PE,Custódia,-37.6410965907,-8.089002,37633
2605152,26,PE,Dormentes,-40.7707358131,-8.4486569865,19246
2605202,26,PE,Escada,-35.2361574244,-8.36252199,69701
2605301,26,PE,Exu,-39.7227283393,-7.516307,31709
2605400,26,PE,Feira Nova,-35.3905979865,-7.9487277422,22360
2605459,26,PE,Fernando de Noronha,-32.4351863281,-3.8520214008,3140
2605509,26,PE,Ferreiros,-35.2440702124,-7.4454942053,12216
2605608,26,PE,Flores,-37.9714561138,-7.8617144749,22612
2605707,26,PE,Floresta,-38.571239342,-8.6008265,33488
2605806,26,PE,Frei Miguelinho,-35.9231276419,-7.9444582474,15633
2605905,26,PE,Gameleira,-35.3866107835,-8.5838357705,31578
2606002,26,PE,Garanhuns,-36.4930502821,-8.88890553,141347
2606101,26,PE,Glória do Goitá,-35.2923223923,-7.9996084721,30847
2606200,26,PE,Goiana,-34.9983762972,-7.5592318549,80345
2606309,26,PE,Granito,-39.6192863432,-7.7092532823,7586
2606408,26,PE,Gravatá,-35.5714923938,-8.2059995,85309
2606507,26,PE,Iati,-36.8472759684,-9.0457092509,19284
2606606,26,PE,Ibimirim,-37.6900466897,-8.5387622082,29585
2606705,26,PE,Ibirajuba,-36.1804630924,-8.5805349356,7773
2606804,26,PE,Igarassu,-34.9105833876,-7.82837199,119690
2606903,26,PE,Iguaracy,-37.5188211185,-7.8447743013,12265
2607000,26,PE,Inajá,-37.8244851112,-8.9020460789,24034
2607109,26,PE,Ingazeira,-37.4576704744,-7.6777971945,4537
2607208,26,PE,Ipojuca,-35.0634719379,-8.3969865,99101
2607307,26,PE,Ipubi,-40.1502087502,-7.6497045,31515
2607406,26,PE,Itacuruba,-38.6863416893,-8.7245150648,5013
2607505,26,PE,Itaíba,-37.4189484589,-8.9400544004,26268
2607604,26,PE,Ilha de Itamaracá,-34.823950567,-7.7465733177,27076
2607653,26,PE,Itambé,-35.1106273574,-7.40926386,36495
2607703,26,PE,Itapetim,-37.188439311,-7.3784285284,13492
2607752,26,PE,Itapissuma,-34.8892710487,-7.7740347647,27144
2607802,26,PE,Itaquitinga,-35.1026145695,-7.6663936085,17056
2607901,26,PE,Jaboatão dos Guararapes,-34.9211734673,-8.1653914674,711330
2607950,26,PE,Jaqueira,-35.7973952138,-8.727969878,11632
2608008,26,PE,Jataúba,-36.4988285484,-7.9872577772,17305
2608057,26,PE,Jatobá,-38.2750376624,-9.1850699925,14904
2608107,26,PE,João Alfredo,-35.591502369,-7.860188727,33570
2608206,26,PE,Joaquim Nabuco,-35.5292418262,-8.6268982995,15999
2608255,26,PE,Jucati,-36.4903865237,-8.7070289644,11545
2608305,26,PE,Jupi,-36.4117337385,-8.7060968528,15007
2608404,26,PE,Jurema,-36.1359544906,-8.719667174,15483
2608453,26,PE,Lagoa do Carro,-35.3126019234,-7.8442324952,18429
2608503,26,PE,Lagoa de Itaenga,-35.2928036525,-7.9323781785,21490
2608602,26,PE,Lagoa do Ouro,-36.4643169318,-9.1241718379,13300
2608701,26,PE,Lagoa dos Gatos,-35.9071210443,-8.6492548646,16345
2608750,26,PE,Lagoa Grande,-40.2707251265,-8.995051485,26090
2608800,26,PE,Lajedo,-36.3214966175,-8.6628568658,40883
2608909,26,PE,Limoeiro,-35.455261051,-7.880198,56149
2609006,26,PE,Macaparana,-35.4498749787,-7.5556806987,25565
2609105,26,PE,Machados,-35.5141405623,-7.6885724856,16549
2609154,26,PE,Manari,-37.6268229455,-8.9601081446,22110
2609204,26,PE,Maraial,-35.8141175725,-8.7830776013,11098
2609303,26,PE,Mirandiba,-38.7345645823,-8.1202438022,15548
2609402,26,PE,Moreno,-35.0948690999,-8.11869453,63792
2609501,26,PE,Nazaré da Mata,-35.2213386962,-7.737688,32673
2609600,26,PE,Olinda,-34.8613103898,-7.9926600753,393734
2609709,26,PE,Orobó,-35.6029820967,-7.7378951337,23985
2609808,26,PE,Orocó,-39.5952457761,-8.6179456461,15309
2609907,26,PE,Ouricuri,-40.0814625767,-7.883151975,70466
2610004,26,PE,Palmares,-35.5883359938,-8.6790825,63745
2610103,26,PE,Palmeirina,-36.3273109987,-9.0016832851,7509
2610202,26,PE,Panelas,-36.0015757987,-8.667242285,26438
2610301,26,PE,Paranatama,-36.6584292681,-8.920145338,11608
2610400,26,PE,Parnamirim,-39.575786823,-8.0901383272,22198
2610509,26,PE,Passira,-35.5816849952,-7.9788839418,28856
2610608,26,PE,Paudalho,-35.1791510624,-7.897135005,57346
2610707,26,PE,Paulista,-34.8847916197,-7.943188,336919
2610806,26,PE,Pedra,-36.9427981489,-8.4984765,22716
2610905,26,PE,Pesqueira,-36.6955147219,-8.3554561078,68067
2611002,26,PE,Petrolândia,-38.2207335453,-8.9773434644,37246
2611101,26,PE,Petrolina,-40.4999993347,-9.397375515,359372
2611200,26,PE,Poção,-36.7058798977,-8.1862270089,11308
2611309,26,PE,Pombos,-35.3961953582,-8.14435986,27204
2611408,26,PE,Primavera,-35.3539433949,-8.3313760861,15231
2611507,26,PE,Quipapá,-36.01198953,-8.8278850221,26309
2611533,26,PE,Quixaba,-37.8464456195,-7.7181264101,6796
2611606,26,PE,Recife,-34.8889419446,-8.0627624831,1661017
2611705,26,PE,Riacho das Almas,-35.8608749475,-8.1270327806,20744
2611804,26,PE,Ribeirão,-35.3761308237,-8.51111604,47813
2611903,26,PE,Rio Formoso,-35.1554328172,-8.6621710853,23719
2612000,26,PE,Sairé,-35.7102477663,-8.3276135393,9600
2612109,26,PE,Salgadinho,-35.6380612405,-7.9394837414,11214
2612208,26,PE,Salgueiro,-39.1208509811,-8.0706775221,61561
2612307,26,PE,Saloá,-36.6927291742,-8.9759954809,15880
2612406,26,PE,Sanharó,-36.5625071954,-8.3629619689,27308
2612455,26,PE,Santa Cruz,-40.3376876556,-8.2379611184,15713
2612471,26,PE,Santa Cruz da Baixa Verde,-38.1531381818,-7.8214696823,12708
2612505,26,PE,Santa Cruz do Capibaribe,-36.2039500171,-7.9551895,111812
2612554,26,PE,Santa Filomena,-40.615775185,-8.1605111673,14645
2612604,26,PE,Santa Maria da Boa Vista,-39.8242357255,-8.8041265,42266
2612703,26,PE,Santa Maria do Cambucá,-35.885243339,-7.8318134262,14308
2612802,26,PE,Santa Terezinha,-37.4800327233,-7.3703557393,11914
2612901,26,PE,São Benedito do Sul,-35.9311226194,-8.8104382342,16239
2613008,26,PE,São Bento do Una,-36.4462983616,-8.5198675206,60567
2613107,26,PE,São Caetano,-36.1373597958,-8.3273605,37488
2613206,26,PE,São João,-36.3682530765,-8.8775593754,23002
2613305,26,PE,São Joaquim do Monte,-35.8094911721,-8.4321515,21439
2613404,26,PE,São José da Coroa Grande,-35.1457070847,-8.8941951307,21868
2613503,26,PE,São José do Belmonte,-38.75945378,-7.8617400547,34082
2613602,26,PE,São José do Egito,-37.2750721852,-7.4740251833,34210
2613701,26,PE,São Lourenço da Mata,-35.0412775393,-7.995938,114910
2613800,26,PE,São Vicente Ferrer,-35.4901218809,-7.5922127326,18150
2613909,26,PE,Serra Talhada,-38.2963149475,-7.98799752,87467
2614006,26,PE,Serrita,-39.2926231744,-7.9543403981,19226
2614105,26,PE,Sertânia,-37.2673901013,-8.07245,36189
2614204,26,PE,Sirinhaém,-35.1164053547,-8.5933695,46845
2614303,26,PE,Moreilândia,-39.5537537311,-7.6299826881,11269
2614402,26,PE,Solidão,-37.647470237,-7.6021256842,6034
2614501,26,PE,Surubim,-35.7567841034,-7.8351570573,66192
2614600,26,PE,Tabira,-37.5402657742,-7.591136513,28860
2614709,26,PE,Tacaimbó,-36.2904043048,-8.3156107248,12843
2614808,26,PE,Tacaratu,-38.1534611597,-9.1056996443,26439
2614857,26,PE,Tamandaré,-35.0906465455,-8.7046892785,23852
